[
  {
    "name": "長興國小羽球場館",
    "region": "基隆市",
    "address": "基隆市七堵區東新街3號",
    "image": "https://iplay.sa.gov.tw/Upload/photogym/20140703173029_DPP_023650-001.jpg",
    "hasParking": [
      "無障礙汽車停車格：1",
      "無障礙昇降設備：1",
      "無障礙廁所：1",
      "無障礙淋浴間：1"
    ],
    "openingHours": [
      "羽球場(館) : 平日開放",
      "開放時間 : 18:00~20:00",
      "租借資訊 : 付費對外場地租借 ",
      "以官方網站資訊為主"
    ],
    "description": "",
    "website": "http://www.cses.kl.edu.tw",
    "phone": "tel:02-24552096#13"
  },
  {
    "name": "堵南國小活動中心",
    "region": "基隆市",
    "address": "基隆市七堵區大德路120號",
    "image": "https://iplay.sa.gov.tw/Upload/photogym/20140701143436_活動中心-門口.JPG",
    "hasParking": [
      "無障礙汽車停車格：1",
      "無障礙坡道：2",
      "無障礙昇降設備：1",
      "無障礙廁所：4"
    ],
    "openingHours": [
      "羽球場(館) : 每天開放",
      "開放時間 : 19:00~21:00",
      "租借資訊 : 付費對外場地租借 ",
      "以官方網站資訊為主"
    ],
    "description": "",
    "website": "http://www.dnps.kl.edu.tw",
    "phone": "tel:0224511339,30"
  },
  {
    "name": "羽球場館",
    "region": "基隆市",
    "address": "基隆市中正區中船路36巷4號",
    "image": "https://iplay.sa.gov.tw/Upload/photogym/20140702100700_DSC05085.jpg",
    "hasParking": [
      "無障礙汽車停車格：2"
    ],
    "openingHours": [
      "羽球場(館) : 平日開放",
      "開放時間 : 16:30~17:30",
      "租借資訊 : 付費對外場地租借 ",
      "足球場 : 平日開放",
      "開放時間 : 16:30~17:30",
      "租借資訊 : 付費對外場地租借 ",
      "以官方網站資訊為主"
    ],
    "description": "",
    "website": "http://www.ccps.kl.edu.tw",
    "phone": "tel:02-24223064#31"
  },
  {
    "name": "臺北市士林區文昌國小活動中心",
    "region": "臺北市",
    "address": "臺北市士林區文林路615巷20號",
    "image": "https://iplay.sa.gov.tw/Upload/photogym/20160901080608_IMAG1605 (640x360).jpg",
    "hasParking": [
      "無"
    ],
    "openingHours": [
      "羽球場(館) : 每天開放",
      "開放時間 : 16:00~20:00",
      "租借資訊 : 付費對外場地租借 ",
      "以官方網站資訊為主"
    ],
    "description": "",
    "website": "http://www.wces.tp.edu.tw",
    "phone": "tel:0228365411,123"
  },
  {
    "name": "至善公園羽球場",
    "region": "臺北市",
    "address": "臺北市士林區福林路至善路一段",
    "image": "https://iplay.sa.gov.tw/Upload/photogym/20140821185653_AYIOP6I6BJJ172DZQ44L.jpg",
    "hasParking": [
      "可調整式球網(羽球)：2"
    ],
    "openingHours": [
      "羽球場(館) : 每天開放",
      "租借資訊 : 免費對外場地租借 ",
      "以官方網站資訊為主"
    ],
    "description": "",
    "website": "https://sports.gov.taipei",
    "phone": "tel:02-25702330#6508"
  },
  {
    "name": "葫蘆國小活動中心",
    "region": "臺北市",
    "address": "臺北市士林區環河北路3段95號",
    "image": "https://iplay.sa.gov.tw/Upload/photogym/20140730084447_2-1.jpg",
    "hasParking": [
      "無障礙汽車停車格：1",
      "無障礙坡道：2",
      "無障礙昇降設備：1",
      "無障礙廁所：1"
    ],
    "openingHours": [
      "羽球場(館) : 每天開放",
      "開放時間 : 18:00~21:00",
      "租借資訊 : 付費對外場地租借 ",
      "以官方網站資訊為主"
    ],
    "description": "",
    "website": "http://www.hrps.tp.edu.tw",
    "phone": "tel:02-28129586#835"
  },
  {
    "name": "銘傳大學羽球場(館)",
    "region": "臺北市",
    "address": "臺北市士林區中山北路五段250號",
    "image": "https://iplay.sa.gov.tw/Upload/photogym/20140610095603_羽球場地設~3.JPG",
    "hasParking": [
      "無"
    ],
    "openingHours": [
      "羽球場(館) : 每天開放",
      "開放時間 : 00:00~00:00",
      "租借資訊 : 付費對外場地租借 ",
      "桌球場(館) : 每天開放",
      "開放時間 : 00:00~00:00",
      "租借資訊 : 付費對外場地租借 ",
      "以官方網站資訊為主"
    ],
    "description": "",
    "website": "http://www.mcu.edu.tw",
    "phone": "tel:0228824564,2325"
  },
  {
    "name": "銘傳大學體育館",
    "region": "臺北市",
    "address": "臺北市士林區中山北路五段250號",
    "image": "https://iplay.sa.gov.tw/Upload/photogym/20140609104547_逸仙堂.jpg",
    "hasParking": [
      "無障礙汽車停車格：1",
      "無障礙坡道：1",
      "無障礙淋浴間：1"
    ],
    "openingHours": [
      "籃球場 : 每天開放",
      "開放時間 : 08:00~22:00",
      "租借資訊 : 付費對外場地租借 ",
      "排球場(館) : 每天開放",
      "開放時間 : 08:00~22:00",
      "租借資訊 : 付費對外場地租借 ",
      "田徑場 : 每天開放",
      "開放時間 : 00:00~00:00",
      "租借資訊 : 付費對外場地租借 ",
      "排球場(館) : 每天開放",
      "開放時間 : 08:00~22:00",
      "租借資訊 : 付費對外場地租借 ",
      "網球場(館) : 每天開放",
      "開放時間 : 00:00~00:00",
      "租借資訊 : 付費對外場地租借 ",
      "桌球場(館) : 每天開放",
      "開放時間 : 00:00~00:00",
      "租借資訊 : 付費對外場地租借 ",
      "羽球場(館) : 每天開放",
      "開放時間 : 00:00~00:00",
      "租借資訊 : 付費對外場地租借 ",
      "籃球場 : 每天開放",
      "開放時間 : 08:00~22:00",
      "租借資訊 : 付費對外場地租借 ",
      "健身房(含重量訓練室) : 平日開放",
      "開放時間 : 12:0~20:00",
      "租借資訊 : 付費對外場地租借 ",
      "以官方網站資訊為主"
    ],
    "description": "",
    "website": "http://www.mcu.edu.tw",
    "phone": "tel:0228824564,2325"
  },
  {
    "name": "百齡高中活動中心",
    "region": "臺北市",
    "address": "臺北市士林區義信里承德路4段177號",
    "image": "https://iplay.sa.gov.tw/Upload/photogym/20140529142146_百齡高中活動中心.jpg",
    "hasParking": [
      "無障礙汽車停車格：1",
      "無障礙坡道：3",
      "無障礙昇降設備：2",
      "無障礙廁所：3",
      "無障礙淋浴間：1"
    ],
    "openingHours": [
      "籃球場 : 平日開放",
      "開放時間 : 17:30~21:30",
      "租借資訊 : 付費對外場地租借 ",
      "排球場(館) : 每天開放",
      "開放時間 : 18:00~21:00",
      "租借資訊 : 付費對外場地租借 ",
      "羽球場(館) : 平日開放",
      "開放時間 : 17:30~21:30",
      "租借資訊 : 付費對外場地租借 ",
      "以官方網站資訊為主"
    ],
    "description": "",
    "website": "http://www.blsh.tp.edu.tw",
    "phone": "tel:0228831568"
  },
  {
    "name": "羽球場館",
    "region": "臺北市",
    "address": "臺北市中正區新營里愛國東路158號",
    "image": "https://iplay.sa.gov.tw/Upload/photogym/20210917085408_1SRFNDS1U0TZ24UVPD5D.jpg",
    "hasParking": [
      "無障礙機踏車停車格：2"
    ],
    "openingHours": [
      "羽球場館 : 每天開放",
      "開放時間 : 1730-2130",
      "租借資訊 : 付費對外場地租借 ",
      "籃球場館 : 每天開放",
      "開放時間 : 18:30~20:30",
      "租借資訊 : 付費對外場地租借 ",
      "以官方網站資訊為主"
    ],
    "description": "",
    "website": "http://www.ccjhs.tp.edu.tw/modules/tadnews/page.php?nsn=7068",
    "phone": "tel:02-23916697"
  },
  {
    "name": "成功高中運動中心(舞動陽光有限公司成功營業所)",
    "region": "臺北市",
    "address": "臺北市中正區濟南路1段71號",
    "image": "https://iplay.sa.gov.tw/Upload/photogym/20140609115648_picmain.jpg",
    "hasParking": [
      "無障礙汽車停車格：2",
      "無障礙廁所：1",
      "無障礙淋浴間：1",
      "入水升降座椅(游泳池)：1"
    ],
    "openingHours": [
      "籃球場 : 特定時間開放",
      "游泳池(館) : 每天開放",
      "租借資訊 : 付費對外場地租借 ",
      "開放時間 : 18:00~22:00",
      "羽球場(館) : 每天開放",
      "租借資訊 : 付費對外場地租借 ",
      "開放時間 : 08:00~22:00",
      "健身房(含重量訓練室) : 每天開放",
      "租借資訊 : 付費對外場地租借 ",
      "開放時間 : 18:00~22:00",
      "舞蹈教室 : 每天開放",
      "租借資訊 : 付費對外場地租借 ",
      "開放時間 : 18:00~22:00",
      "田徑場 : 每天開放",
      "租借資訊 : 付費對外場地租借 ",
      "開放時間 : 18:00~20:00",
      "以官方網站資訊為主"
    ],
    "description": "",
    "website": "http://www.cksh.tp.edu.tw",
    "phone": "tel:02-23216256#276"
  },
  {
    "name": "成淵高中綜合球場",
    "region": "臺北市",
    "address": "臺北市大同區承德路二段235號",
    "image": "https://iplay.sa.gov.tw/Upload/photogym/20140529125805_DSC01582.JPG",
    "hasParking": [
      "無障礙汽車停車格：1",
      "無障礙機踏車停車格：1",
      "無障礙坡道：1",
      "無障礙昇降設備：3",
      "無障礙廁所：3",
      "無障礙淋浴間：1"
    ],
    "openingHours": [
      "羽球場(館) : 平日開放",
      "開放時間 : 19:00~21:00",
      "租借資訊 : 付費對外場地租借 ",
      "以官方網站資訊為主"
    ],
    "description": "",
    "website": "http://www.cyhs.tp.edu.tw",
    "phone": "tel:0225531969"
  },
  {
    "name": "仁愛國小活動中心",
    "region": "臺北市",
    "address": "臺北市安和路1段60號",
    "image": "https://iplay.sa.gov.tw/Upload/photogym/20160513163214_五育發展中心.jpg",
    "hasParking": [
      "無障礙汽車停車格：1",
      "無障礙坡道：2",
      "無障礙廁所：1"
    ],
    "openingHours": [
      "羽球場(館) : 每天開放",
      "開放時間 : 17:00~21:00",
      "租借資訊 : 付費對外場地租借 ",
      "以官方網站資訊為主"
    ],
    "description": "",
    "website": "http://www.japs.tp.edu.tw",
    "phone": "tel:0227095010,411"
  },
  {
    "name": "金華國小華樓",
    "region": "臺北市",
    "address": "臺北市大安區永康里愛國東路79巷11號",
    "image": "https://iplay.sa.gov.tw/Upload/photogym/20140731140634_DSC03166.JPG",
    "hasParking": [
      "無障礙坡道：2",
      "無障礙廁所：1",
      "無障礙淋浴間：1",
      "入水升降座椅(游泳池)：1"
    ],
    "openingHours": [
      "羽球場(館) : 平日開放",
      "開放時間 : 18:00~19:30",
      "租借資訊 : 付費對外場地租借 ",
      "游泳池(館) : 平日開放",
      "開放時間 : 8:30~15:0",
      "租借資訊 : 付費對外場地租借 ",
      "以官方網站資訊為主"
    ],
    "description": "",
    "website": "http://www.cups.tp.edu.tw/./",
    "phone": "tel:02-23917402#831"
  },
  {
    "name": "明湖國小活動中心",
    "region": "臺北市",
    "address": "臺北市內湖區東湖里康寧路3段105號",
    "image": "https://iplay.sa.gov.tw/Upload/photogym/20160918170024_IMAG4510.jpg",
    "hasParking": [
      "無障礙汽車停車格：1",
      "無障礙坡道：1",
      "無障礙昇降設備：1",
      "無障礙廁所：3",
      "無障礙淋浴間：2"
    ],
    "openingHours": [
      "排球場(館) : 特定時間開放",
      "羽球場(館) : 特定時間開放",
      "租借資訊 : 付費對外場地租借 ",
      "游泳池(館) : 特定時間開放",
      "以官方網站資訊為主"
    ],
    "description": "",
    "website": "http://www.mhups.tp.edu.tw",
    "phone": "tel:02-26323477#41"
  },
  {
    "name": "內湖高中活動中心",
    "region": "臺北市",
    "address": "臺北市內湖區紫陽里文德路218號",
    "image": "https://iplay.sa.gov.tw/Upload/photogym/20140529114640_ICVO0TCN63TCICKOVP8S.jpg",
    "hasParking": [
      "無障礙汽車停車格：1",
      "無障礙坡道：1",
      "無障礙昇降設備：1",
      "無障礙廁所：1",
      "無障礙淋浴間：1"
    ],
    "openingHours": [
      "籃球場 : 平日開放",
      "開放時間 : 19:30~21:30",
      "租借資訊 : 付費對外場地租借 ",
      "羽球場(館) : 平日開放",
      "開放時間 : 19:30~21:30",
      "租借資訊 : 付費對外場地租借 ",
      "排球場(館) : 平日開放",
      "開放時間 : 19:30~21:30",
      "租借資訊 : 付費對外場地租借 ",
      "以官方網站資訊為主"
    ],
    "description": "",
    "website": "http://web.nhsh.tp.edu.tw/",
    "phone": "tel:0227977035"
  },
  {
    "name": "景興國小活動中心",
    "region": "臺北市",
    "address": "臺北市文山區興安里景華街150巷21號",
    "image": "https://iplay.sa.gov.tw/Upload/photogym/20140728162701_活動中心照片.jpg",
    "hasParking": [
      "無障礙汽車停車格：1",
      "無障礙昇降設備：1",
      "無障礙廁所：1"
    ],
    "openingHours": [
      "羽球場(館) : 每天開放",
      "開放時間 : 19:00-21:00",
      "租借資訊 : 付費對外場地租借 ",
      "以官方網站資訊為主"
    ],
    "description": "",
    "website": "http://www.chps.tp.edu.tw",
    "phone": "tel:02-29329439#723"
  },
  {
    "name": "景美國小活動中心",
    "region": "臺北市",
    "address": "臺北市文山區景行里景文街108號",
    "image": "https://iplay.sa.gov.tw/Upload/photogym/20140728152035_DSC05794_1.jpg",
    "hasParking": [
      "無障礙坡道：1",
      "無障礙昇降設備：1"
    ],
    "openingHours": [
      "籃球場 : 每天開放",
      "開放時間 : 18:00~21:00",
      "租借資訊 : 付費對外場地租借 ",
      "羽球場(館) : 每天開放",
      "開放時間 : 18:00~21:00",
      "租借資訊 : 付費對外場地租借 ",
      "以官方網站資訊為主"
    ],
    "description": "",
    "website": "http://www.cmes.tp.edu.tw",
    "phone": "tel:0229322151,123"
  },
  {
    "name": "臺北市文山運動中心",
    "region": "臺北市",
    "address": "臺北市文山區興隆路三段222號",
    "image": "https://iplay.sa.gov.tw/Upload/photogym/20140620123524_167903574_m.jpg",
    "hasParking": [
      "無障礙汽車停車格：2",
      "無障礙機踏車停車格：5",
      "無障礙坡道：3",
      "無障礙昇降設備：1",
      "無障礙廁所：5",
      "無障礙淋浴間：2",
      "入水升降座椅(游泳池)：1",
      "入水坡道(游泳池)：1",
      "泳池專用輪椅(游泳池)：2",
      "可調整式球框(籃球)：1"
    ],
    "openingHours": [
      "游泳池(館) : 特定時間開放",
      "籃球場 : 特定時間開放",
      "租借資訊 : 付費對外場地租借 ",
      "羽球場(館) : 特定時間開放",
      "射擊場 : 每天開放",
      "租借資訊 : 付費對外場地租借 ",
      "開放時間 : 06:00-22:00",
      "攀岩場 : 特定時間開放",
      "租借資訊 : 付費對外場地租借 ",
      "桌球場(館) : 特定時間開放",
      "舞蹈教室 : 特定時間開放",
      "租借資訊 : 付費對外場地租借 ",
      "兒童體適能館 : 每天開放",
      "開放時間 : 100:00~18:30",
      "租借資訊 : 付費對外場地租借 ",
      "撞球場 : 特定時間開放",
      "舞蹈教室2 : 每天開放",
      "租借資訊 : 付費對外場地租借 ",
      "開放時間 : 7:0~22:00",
      "飛輪室 : 特定時間開放",
      "租借資訊 : 付費對外場地租借 ",
      "以官方網站資訊為主"
    ],
    "description": "",
    "website": "https://wssc.cyc.org.tw/",
    "phone": "tel:02-22308268"
  },
  {
    "name": "世新大學體育館",
    "region": "臺北市",
    "address": "臺北市文山區木柵路一段17巷1號",
    "image": "https://iplay.sa.gov.tw/Upload/photogym/20140604122953_室外球場s.jpg",
    "hasParking": [
      "無"
    ],
    "openingHours": [
      "籃球場 : 週末開放",
      "開放時間 : 08:00~22:00",
      "租借資訊 : 付費對外場地租借 ",
      "羽球場(館) : 週末開放",
      "開放時間 : 08:00~22:00",
      "租借資訊 : 付費對外場地租借 ",
      "排球場(館) : 週末開放",
      "開放時間 : 08:00~22:00",
      "租借資訊 : 付費對外場地租借 ",
      "桌球場(館) : 週末開放",
      "開放時間 : 08:00~22:00",
      "租借資訊 : 付費對外場地租借 ",
      "柔道場/館 : 週末開放",
      "開放時間 : 08:00~22:00",
      "租借資訊 : 付費對外場地租借 ",
      "舞蹈教室 : 週末開放",
      "開放時間 : 08:00~22:00",
      "租借資訊 : 付費對外場地租借 ",
      "體適能中心 (含重量訓練室) : 平日開放",
      "開放時間 : 12:30~20:00",
      "租借資訊 : 付費對外場地租借 ",
      "以官方網站資訊為主"
    ],
    "description": "",
    "website": "http://www.shu.edu.tw",
    "phone": "tel:0222368225,83078"
  },
  {
    "name": "木柵高工活動中心",
    "region": "臺北市",
    "address": "臺北市文山區萬芳里木柵路4段77號",
    "image": "https://iplay.sa.gov.tw/Upload/photogym/20140529174214_活動中心外貌.jpg",
    "hasParking": [
      "無障礙汽車停車格：2",
      "無障礙坡道：1",
      "無障礙廁所：2"
    ],
    "openingHours": [
      "羽球場(館) : 每天開放",
      "開放時間 : 18:00~22:00",
      "租借資訊 : 付費對外場地租借 ",
      "以官方網站資訊為主"
    ],
    "description": "",
    "website": "http://www.mcvs.tp.edu.tw",
    "phone": "tel:0222300506,303"
  },
  {
    "name": "政治大學體育館",
    "region": "臺北市",
    "address": "臺北市文山區指南路二段64號",
    "image": "https://iplay.sa.gov.tw/Upload/photogym/20140529165724_W3WV3WO2NW7IGELU06BS.jpg",
    "hasParking": [
      "無障礙汽車停車格：1",
      "無障礙坡道：2",
      "無障礙廁所：2",
      "無障礙淋浴間：2"
    ],
    "openingHours": [
      "羽球場 : 週末開放",
      "開放時間 : 08:00~21:00",
      "租借資訊 : 付費對外場地租借 "
    ],
    "description": "",
    "website": "http://sports.nccu.edu.tw/",
    "phone": "tel:0229393091,62964"
  },
  {
    "name": "政大附中體育館",
    "region": "臺北市",
    "address": "臺北市文山區政大一街353號",
    "image": "https://iplay.sa.gov.tw/Upload/photogym/20140529142512_D:\\My Documents\\總務處\\空間配置圖\\1030616體育館照片\\DSCN0477.jpg",
    "hasParking": [
      "無障礙汽車停車格：5",
      "無障礙坡道：2",
      "無障礙昇降設備：4",
      "無障礙廁所：50"
    ],
    "openingHours": [
      "籃球場 : 週末開放",
      "開放時間 : 08:00~17:00",
      "租借資訊 : 付費對外場地租借 ",
      "排球場(館) : 週末開放",
      "開放時間 : 08:00~17:00",
      "租借資訊 : 付費對外場地租借 ",
      "羽球場(館) : 週末開放",
      "開放時間 : 08:00~17:00",
      "租借資訊 : 付費對外場地租借 ",
      "以官方網站資訊為主"
    ],
    "description": "",
    "website": "http://www.ahs.nccu.edu.tw",
    "phone": "tel:0282377500,9441"
  },
  {
    "name": "臺北市北投區立農公園",
    "region": "臺北市",
    "address": "臺北市北投區承德路7段378號",
    "image": "https://iplay.sa.gov.tw/Upload/photogym/20170718172437_Y82FC3K0N5UTSW47QA8X.jpg",
    "hasParking": [
      "無"
    ],
    "openingHours": [
      "羽球場(館) : 每天開放",
      "開放時間 : 08:00",
      "租借資訊 : 免費對外場地租借 ",
      "以官方網站資訊為主"
    ],
    "description": "",
    "website": "https://sports.gov.taipei/",
    "phone": "tel:02-25702330"
  },
  {
    "name": "明德國小活動中心",
    "region": "臺北市",
    "address": "臺北市北投區榮華里明德路190號",
    "image": "https://iplay.sa.gov.tw/Upload/photogym/20140725131500_IMAG2309_BURST001.jpg",
    "hasParking": [
      "無障礙坡道：3",
      "無障礙昇降設備：1",
      "無障礙廁所：2"
    ],
    "openingHours": [
      "羽球場(館) : 週末開放",
      "開放時間 : 08:00~14:0",
      "租借資訊 : 付費對外場地租借 ",
      "籃球場 : 週末開放",
      "開放時間 : 08:00~14:0",
      "租借資訊 : 付費對外場地租借 ",
      "以官方網站資訊為主"
    ],
    "description": "",
    "website": "http://www.mdes.tp.edu.tw",
    "phone": "tel:0228229651,1204"
  },
  {
    "name": "石牌國小活動中心",
    "region": "臺北市",
    "address": "臺北市北投區吉利里致遠二路80號",
    "image": "https://iplay.sa.gov.tw/Upload/photogym/20140722171537_DSC_0067.JPG",
    "hasParking": [
      "無障礙昇降設備：1"
    ],
    "openingHours": [
      "籃球場 : 平日開放",
      "開放時間 : 7:0~20:00",
      "租借資訊 : 付費對外場地租借 ",
      "羽球場(館) : 平日開放",
      "開放時間 : 7:0~20:00",
      "租借資訊 : 付費對外場地租借 ",
      "以官方網站資訊為主"
    ],
    "description": "",
    "website": "http://web.spps.tp.edu.tw",
    "phone": "tel:0228227484,225"
  },
  {
    "name": "敦化國小學生活動中心羽球場",
    "region": "臺北市",
    "address": "臺北市松山區中正里敦化北路2號",
    "image": "https://iplay.sa.gov.tw/Upload/photogym/20161006162803_DSC05045.JPG",
    "hasParking": [
      "無障礙廁所：1"
    ],
    "openingHours": [
      "羽球場 : 每天開放",
      "開放時間 : 5:0~21:30",
      "租借資訊 : 付費對外場地租借 ",
      "以官方網站資訊為主"
    ],
    "description": "",
    "website": "http://www.thps.tp.edu.tw",
    "phone": "tel:02-27414065#134"
  },
  {
    "name": "敦化國中運動場暨活動中心",
    "region": "臺北市",
    "address": "臺北市松山區南京東路三段300號",
    "image": "https://iplay.sa.gov.tw/Upload/photogym/20140801170707_DSC06483.JPG",
    "hasParking": [
      "無障礙坡道：1",
      "無障礙昇降設備：1",
      "無障礙廁所：3",
      "無障礙淋浴間：2"
    ],
    "openingHours": [
      "活動中心 : 平日開放",
      "開放時間 : 18:30~21:30",
      "租借資訊 : 付費對外場地租借 ",
      "游泳池(館) : 平日開放",
      "開放時間 : 17:00~20:00",
      "租借資訊 : 付費對外場地租借 ",
      "操場(跑道)、室外籃球場 : 每天開放",
      "開放時間 : 17:30~21:30",
      "租借資訊 : 付費對外場地租借 ",
      "以官方網站資訊為主"
    ],
    "description": "",
    "website": "http://www.thjh.tp.edu.tw",
    "phone": "tel:0287717890,250"
  },
  {
    "name": "民生國小活動中心",
    "region": "臺北市",
    "address": "臺北市松山區敦化北路199巷18號",
    "image": "https://iplay.sa.gov.tw/Upload/photogym/20140730102145_調整大小003.JPG",
    "hasParking": [
      "無"
    ],
    "openingHours": [
      "羽球場(館) : 平日開放",
      "開放時間 : 18:00~21:000",
      "租借資訊 : 付費對外場地租借 ",
      "以官方網站資訊為主"
    ],
    "description": "",
    "website": "http://www.msps.tp.edu.tw",
    "phone": "tel:0227122452,821"
  },
  {
    "name": "西松高中活動中心",
    "region": "臺北市",
    "address": "臺北市松山區鵬程里健康路325巷7號西南側",
    "image": "https://iplay.sa.gov.tw/Upload/photogym/20140728154331_球場.jpg",
    "hasParking": [
      "無障礙汽車停車格：2",
      "無障礙坡道：1",
      "無障礙昇降設備：1",
      "無障礙廁所：5",
      "無障礙淋浴間：1",
      "入水升降座椅(游泳池)：1"
    ],
    "openingHours": [
      "籃球場 : 每天開放",
      "開放時間 : 17:30~21:30",
      "租借資訊 : 付費對外場地租借 ",
      "羽球場(館) : 每天開放",
      "開放時間 : 17:30~21:30",
      "租借資訊 : 付費對外場地租借 ",
      "游泳池(館) : 平日開放",
      "開放時間 : 19:30~21:30",
      "租借資訊 : 付費對外場地租借 ",
      "禮堂 : 平日開放",
      "開放時間 : 17:30~21:30",
      "租借資訊 : 付費對外場地租借 ",
      "田徑場 : 每天開放",
      "開放時間 : 17:30~21:00",
      "租借資訊 : 付費對外場地租借 ",
      "以官方網站資訊為主"
    ],
    "description": "",
    "website": "http://www.hssh.tp.edu.tw",
    "phone": "tel:0225286618"
  },
  {
    "name": "松山國小活動中心",
    "region": "臺北市",
    "address": "臺北市松山區八德路四段746號",
    "image": "https://iplay.sa.gov.tw/Upload/photogym/20140724112218_IMAG0655 (2).jpg",
    "hasParking": [
      "無障礙坡道：1"
    ],
    "openingHours": [
      "羽球場(館) : 平日開放",
      "開放時間 : 18:30~20:30",
      "租借資訊 : 付費對外場地租借 ",
      "以官方網站資訊為主"
    ],
    "description": "",
    "website": "http://web.ssps.tp.edu.tw",
    "phone": "tel:0227672907,623"
  },
  {
    "name": "臺北體育館",
    "region": "臺北市",
    "address": "臺北市松山區南京東路4段10號",
    "image": "https://iplay.sa.gov.tw/Upload/photogym/20140704090451_UF2UH0WTJUBZY03XXLBU.jpg",
    "hasParking": [
      "無障礙汽車停車格：1",
      "無障礙廁所：6",
      "無障礙坡道：1",
      "無障礙淋浴間：6",
      "無障礙昇降設備：1"
    ],
    "openingHours": [
      "羽球場 : 每天開放",
      "開放時間 : 06:00~22:00",
      "租借資訊 : 付費對外場地租借 ",
      "桌球室 : 每天開放",
      "開放時間 : 06:00~22:00",
      "租借資訊 : 付費對外場地租借 ",
      "籃球場 : 每天開放",
      "開放時間 : 08:00-22:00",
      "租借資訊 : 付費對外場地租借 ",
      "羽球場 : 每天開放",
      "開放時間 : 08:00-22:00",
      "租借資訊 : 付費對外場地租借 ",
      "排球場 : 每天開放",
      "開放時間 : 08:00-22:00",
      "租借資訊 : 付費對外場地租借 ",
      "跆拳道場 : 每天開放",
      "開放時間 : 08:00-22:00",
      "租借資訊 : 付費對外場地租借 ",
      "以官方網站資訊為主"
    ],
    "description": "",
    "website": "https://sports.tms.gov.tw/venues/",
    "phone": "tel:02-25702330#6552"
  },
  {
    "name": "興雅國小活動中心",
    "region": "臺北市",
    "address": "臺北市信義區雅祥里基隆路1段83巷9號",
    "image": "https://iplay.sa.gov.tw/Upload/photogym/20140812153319_J66VXO3KBRY3HO795H8I.jpg",
    "hasParking": [
      "無障礙坡道：2",
      "無障礙昇降設備：2"
    ],
    "openingHours": [
      "羽球場(館) : 每天開放",
      "開放時間 : 19:00~21:30",
      "租借資訊 : 付費對外場地租借 ",
      "以官方網站資訊為主"
    ],
    "description": "",
    "website": "http://www.hyps.tp.edu.tw",
    "phone": "tel:0227618156"
  },
  {
    "name": "永吉國小風雨操場",
    "region": "臺北市",
    "address": "臺北市信義區永春里松山路287巷5號",
    "image": "https://iplay.sa.gov.tw/Upload/photogym/20140729095333_DSC_4486 (800x534).jpg",
    "hasParking": [
      "無障礙坡道：1",
      "無障礙廁所：1"
    ],
    "openingHours": [
      "羽球場(館) : 平日開放",
      "開放時間 : 19:00~21:00",
      "租借資訊 : 付費對外場地租借 ",
      "以官方網站資訊為主"
    ],
    "description": "",
    "website": "http://www.yhps.tp.edu.tw",
    "phone": "tel:0287858111,640"
  },
  {
    "name": "臺北市信義區博愛國民小學",
    "region": "臺北市",
    "address": "臺北市信義區松仁路95巷20號",
    "image": "https://iplay.sa.gov.tw/Upload/photogym/20140725144807_mobilece57d605-ece4-4f86-8b80-d50f933f2705.jpg",
    "hasParking": [
      "無障礙坡道：1",
      "無障礙昇降設備：1",
      "無障礙廁所：1",
      "無障礙淋浴間：1",
      "入水升降座椅(游泳池)：1",
      "其他：1"
    ],
    "openingHours": [
      "羽球場(館) : 每天開放",
      "開放時間 : 08:00~22:00",
      "租借資訊 : 付費對外場地租借 ",
      "游泳池(館) : 每天開放",
      "開放時間 : 100:00~21:00",
      "租借資訊 : 付費對外場地租借 ",
      "以官方網站資訊為主"
    ],
    "description": "",
    "website": "http://www.baps.tp.edu.tw/",
    "phone": "tel:0287892525"
  },
  {
    "name": "大理國小活動中心",
    "region": "臺北市",
    "address": "臺北市萬華區綠堤里艋舺大道389號",
    "image": "https://iplay.sa.gov.tw/Upload/photogym/20140722163301_3OT2ZI1AI7JTPVSCPELH.JPG",
    "hasParking": [
      "無障礙坡道：1",
      "無障礙昇降設備：1",
      "無障礙廁所：1"
    ],
    "openingHours": [
      "羽球場(館) : 每天開放",
      "開放時間 : 18:30~21:30",
      "租借資訊 : 付費對外場地租借 ",
      "以官方網站資訊為主"
    ],
    "description": "",
    "website": "http://www.tlps.tp.edu.tw",
    "phone": "tel:02-23064311#1420"
  },
  {
    "name": "雙園國中體育館",
    "region": "臺北市",
    "address": "臺北市萬華區和德里興義街2號",
    "image": "https://iplay.sa.gov.tw/Upload/photogym/20140722094539_IMG_0630(001).jpg",
    "hasParking": [
      "無障礙坡道：1",
      "無障礙昇降設備：1"
    ],
    "openingHours": [
      "羽球場(館) : 每天開放",
      "開放時間 : 09:00~100:00",
      "租借資訊 : 付費對外場地租借 ",
      "籃球場 : 每天開放",
      "開放時間 : 09:00~100:00",
      "租借資訊 : 付費對外場地租借 ",
      "以官方網站資訊為主"
    ],
    "description": "",
    "website": "http://www.syjhs.tp.edu.tw",
    "phone": "tel:0223037605,137"
  },
  {
    "name": "華江國小活動中心",
    "region": "臺北市",
    "address": "臺北市萬華區環河南路2段250巷42弄2號",
    "image": "https://iplay.sa.gov.tw/Upload/photogym/20140722092316_DSC_0273.JPG",
    "hasParking": [
      "無障礙坡道：3",
      "無障礙昇降設備：1",
      "無障礙廁所：1"
    ],
    "openingHours": [
      "羽球場(館) : 特定時間開放",
      "租借資訊 : 付費對外場地租借",
      "以官方網站資訊為主"
    ],
    "description": "",
    "website": "http://web.hces.tp.edu.tw/front/bin/home.phtml",
    "phone": "tel:02-23064352#134"
  },
  {
    "name": "臺北市萬華運動中心",
    "region": "臺北市",
    "address": "臺北市萬華區西寧南路6之1號",
    "image": "https://iplay.sa.gov.tw/Upload/photogym/20140618160453_IMAG6907.jpg",
    "hasParking": [
      "無障礙汽車停車格：1",
      "無障礙機踏車停車格：3",
      "無障礙昇降設備：1",
      "無障礙廁所：1",
      "無障礙淋浴間：1",
      "無障礙坡道：1",
      "入水升降座椅(游泳池)：1"
    ],
    "openingHours": [
      "籃球場 : 特定時間開放",
      "羽球場(館) : 特定時間開放",
      "租借資訊 : 付費對外場地租借 ",
      "高爾夫球練習場 : 每天開放",
      "開放時間 : 0600-2200",
      "租借資訊 : 付費對外場地租借 ",
      "桌球場(館) : 特定時間開放",
      "游泳池(館) : 特定時間開放",
      "租借資訊 : 付費對外場地租借 ",
      "角力場/場、武術館(教室) : 每天開放",
      "開放時間 : 6:0~22:00",
      "租借資訊 : 付費對外場地租借 ",
      "舞蹈教室 : 特定時間開放",
      "攀岩場 : 特定時間開放",
      "租借資訊 : 付費對外場地租借 ",
      "足球場 : 特定時間開放",
      "多功能健身房/體適能中心（此空間中具有兩種以上之阻力運動器材設備） : 特定時間開放",
      "租借資訊 : 付費對外場地租借 ",
      "飛輪室 : 特定時間開放",
      "以官方網站資訊為主"
    ],
    "description": "",
    "website": "http://whsc.com.tw/",
    "phone": "tel:02-23759900"
  },
  {
    "name": "市立華江高中活動中心",
    "region": "臺北市",
    "address": "臺北市萬華區西藏路213號",
    "image": "https://iplay.sa.gov.tw/Upload/photogym/20140603101524_IMG_20140603_102403[1].jpg",
    "hasParking": [
      "無障礙汽車停車格：1",
      "無障礙坡道：1",
      "無障礙廁所：2",
      "無障礙淋浴間：1",
      "入水升降座椅(游泳池)：1"
    ],
    "openingHours": [
      "羽球場(館) : 每天開放",
      "開放時間 : 200:00~22:00",
      "租借資訊 : 付費對外場地租借 ",
      "羽球場(館) : 每天開放",
      "開放時間 : 18:00~22:00",
      "租借資訊 : 付費對外場地租借 ",
      "桌球場(館) : 每天開放",
      "開放時間 : 18:00~22:00",
      "租借資訊 : 付費對外場地租借 ",
      "游泳池(館) : 每天開放",
      "開放時間 : 17:30~22:00",
      "租借資訊 : 付費對外場地租借 ",
      "以官方網站資訊為主"
    ],
    "description": "",
    "website": "http://www.hcsh.tp.edu.tw/",
    "phone": "tel:0223396689"
  },
  {
    "name": "八里國中活動中心",
    "region": "新北市",
    "address": "新北市八里區荖阡坑路15號",
    "image": "https://iplay.sa.gov.tw/Upload/photogym/20140720121423_DSC06260.JPG",
    "hasParking": [
      "無"
    ],
    "openingHours": [
      "羽球場(館) : 平日開放",
      "開放時間 : 08:00~17:00",
      "租借資訊 : 付費對外場地租借 ",
      "桌球場(館) : 平日開放",
      "開放時間 : 08:00~17:00",
      "租借資訊 : 付費對外場地租借 ",
      "以官方網站資訊為主"
    ],
    "description": "",
    "website": "http://www.pljhs.ntpc.edu.tw",
    "phone": "tel:0226102016,301"
  },
  {
    "name": "馬偕醫學院多功能活動中心",
    "region": "新北市",
    "address": "新北市三芝區中正路三段46號",
    "image": "https://iplay.sa.gov.tw/Upload/photogym/20140703144529__IGP1049.JPG",
    "hasParking": [
      "無障礙汽車停車格：2",
      "無障礙昇降設備：1",
      "無障礙廁所：4"
    ],
    "openingHours": [
      "籃球場(館) : 週末開放",
      "開放時間 : 09:00~17:00",
      "租借資訊 : 付費對外場地租借 ",
      "排球場(館) : 週末開放",
      "開放時間 : 09:00~17:00",
      "租借資訊 : 付費對外場地租借 ",
      "羽球場(館) : 週末開放",
      "開放時間 : 09:00~17:00",
      "租借資訊 : 付費對外場地租借 ",
      "桌球場(館) : 平日開放",
      "開放時間 : 17:00~22:00",
      "租借資訊 : 付費對外場地租借 ",
      "以官方網站資訊為主"
    ],
    "description": "",
    "website": "http://www.mmc.edu.tw",
    "phone": "tel:0226360303,5013"
  },
  {
    "name": "三重國民運動中心",
    "region": "新北市",
    "address": "新北市三重區集美街55號",
    "image": "https://iplay.sa.gov.tw/Upload/photogym/20140923115710_DSC_0358.JPG",
    "hasParking": [
      "無障礙汽車停車格：2",
      "無障礙機踏車停車格：2",
      "無障礙昇降設備：4",
      "無障礙廁所：10",
      "無障礙淋浴間：9",
      "無障礙坡道：2",
      "入水升降座椅(游泳池)：1",
      "入水坡道(游泳池)：1",
      "泳池專用輪椅(游泳池)：1",
      "可調整式球框(籃球)：2"
    ],
    "openingHours": [
      "游泳池 : 特定時間開放",
      "體適能中心 : 特定時間開放",
      "租借資訊 : 付費對外場地租借 ",
      "飛輪教室 : 特定時間開放",
      "韻律教室 : 每天開放",
      "租借資訊 : 付費對外場地租借 ",
      "開放時間 : 6:0~22:00",
      "桌球室 : 特定時間開放",
      "租借資訊 : 付費對外場地租借 ",
      "羽球場 : 特定時間開放",
      "攀岩場 : 特定時間開放",
      "租借資訊 : 付費對外場地租借 ",
      "壁球室 : 特定時間開放",
      "射箭場 : 特定時間開放",
      "租借資訊 : 付費對外場地租借 ",
      "武術綜合教室 : 每天開放",
      "開放時間 : 6:0~22:00",
      "租借資訊 : 付費對外場地租借 ",
      "綜合球場 : 特定時間開放",
      "女性運動教室 : 每天開放",
      "租借資訊 : 付費對外場地租借 ",
      "開放時間 : 6:0~22:00",
      "社區教室 : 每天開放",
      "租借資訊 : 付費對外場地租借 ",
      "開放時間 : 6:0~22:00",
      "體適能綜合訓練區 : 每天開放",
      "租借資訊 : 付費對外場地租借 ",
      "開放時間 : 6:0~22:00",
      "排球場館 : 特定時間開放",
      "租借資訊 : 付費對外場地租借 ",
      "韻律體操室 : 特定時間開放",
      "飛輪室 : 特定時間開放",
      "租借資訊 : 付費對外場地租借 ",
      "TRX室 : 特定時間開放",
      "以官方網站資訊為主"
    ],
    "description": "",
    "website": "http://www.scsports.com.tw/",
    "phone": "tel:02-89720079"
  },
  {
    "name": "修德國小體育館",
    "region": "新北市",
    "address": "新北市三重區重陽路三段3號",
    "image": "https://iplay.sa.gov.tw/Upload/photogym/20140616133633_1.gif",
    "hasParking": [
      "無"
    ],
    "openingHours": [
      "羽球場(館) : 每天開放",
      "開放時間 : 17:00~21:00",
      "租借資訊 : 付費對外場地租借 ",
      "以官方網站資訊為主"
    ],
    "description": "",
    "website": "http://www.sude.ntpc.edu.tw",
    "phone": "tel:0229800495,616"
  },
  {
    "name": "碧華國小籃球場",
    "region": "新北市",
    "address": "新北市三重區五華街160號",
    "image": "https://iplay.sa.gov.tw/Upload/photogym/20140616102220_BJZ0FVUZ89KTFC08IBS8.JPG",
    "hasParking": [
      "無障礙坡道：1",
      "無障礙昇降設備：1",
      "無障礙廁所：1"
    ],
    "openingHours": [
      "籃球場 : 每天開放",
      "開放時間 : 18:00~22:00",
      "租借資訊 : 付費對外場地租借 ",
      "羽球場(館) : 每天開放",
      "開放時間 : 18:00~22:00",
      "租借資訊 : 付費對外場地租借 ",
      "以官方網站資訊為主"
    ],
    "description": "",
    "website": "http://www2.bhes.ntpc.edu.tw/",
    "phone": "tel:0228577792,734"
  },
  {
    "name": "光興國小活動中心",
    "region": "新北市",
    "address": "新北市三重區正義南路62號",
    "image": "https://iplay.sa.gov.tw/Upload/photogym/20140616095335_P1030076a.jpg",
    "hasParking": [
      "無障礙汽車停車格：5",
      "無障礙坡道：2"
    ],
    "openingHours": [
      "羽球場(館) : 每天開放",
      "開放時間 : 18:00~21:00",
      "租借資訊 : 付費對外場地租借 ",
      "以官方網站資訊為主"
    ],
    "description": "",
    "website": "http://www.kses.ntpc.edu.tw",
    "phone": "tel:0229755352,732"
  },
  {
    "name": "清水高中綜合體育館",
    "region": "新北市",
    "address": "新北市土城區明德路一段72號",
    "image": "https://iplay.sa.gov.tw/Upload/photogym/20140612140224_DSC05863.JPG",
    "hasParking": [
      "無障礙坡道：1",
      "無障礙昇降設備：1",
      "無障礙廁所：2"
    ],
    "openingHours": [
      "籃球場 : 每天開放",
      "開放時間 : 18:00~18:00",
      "租借資訊 : 付費對外場地租借 ",
      "羽球場(館) : 每天開放",
      "開放時間 : 18:00~20:00",
      "租借資訊 : 付費對外場地租借 ",
      "排球場(館) : 每天開放",
      "開放時間 : 18:00~20:00",
      "租借資訊 : 付費對外場地租借 ",
      "以官方網站資訊為主"
    ],
    "description": "",
    "website": "http://www.cssh.ntpc.edu.tw",
    "phone": "tel:02-22707801"
  },
  {
    "name": "中和國民運動中心",
    "region": "新北市",
    "address": "新北市中和區錦和路350-1、2號",
    "image": "https://iplay.sa.gov.tw/Upload/photogym/20140924092129_主館外觀1.jpg",
    "hasParking": [
      "無障礙汽車停車格：6",
      "無障礙機踏車停車格：11",
      "無障礙坡道：2",
      "無障礙昇降設備：4",
      "無障礙廁所：6",
      "無障礙淋浴間：6",
      "入水升降座椅(游泳池)：1",
      "泳池專用輪椅(游泳池)：3",
      "訊號顯示器(籃球)：1",
      "可調整式球框(籃球)：2",
      "可調整式球網(排球)：1",
      "可調整式球網(羽球)：6",
      "無障礙健身器材(體適能區)：2"
    ],
    "openingHours": [
      "羽球場 : 特定時間開放",
      "以官方網站資訊為主"
    ],
    "description": "",
    "website": "http://www.changjia.com.tw/",
    "phone": "tel:02-22429222"
  },
  {
    "name": "羽球場館",
    "region": "新北市",
    "address": "新北市中和區民安街66號",
    "image": "https://iplay.sa.gov.tw/Upload/photogym/20140703161645_DSC00531.JPG",
    "hasParking": [
      "無"
    ],
    "openingHours": [
      "羽球場(館) : 每天開放",
      "開放時間 : 18:00~21:30",
      "租借資訊 : 付費對外場地租借 ",
      "以官方網站資訊為主"
    ],
    "description": "",
    "website": "http://www.gsjh.ntpc.edu.tw",
    "phone": "tel:02-22234747#831"
  },
  {
    "name": "積穗國小活動中心",
    "region": "新北市",
    "address": "新北市中和區員山路154號",
    "image": "https://iplay.sa.gov.tw/Upload/photogym/20140619133800_P1050805.JPG",
    "hasParking": [
      "無障礙廁所：1"
    ],
    "openingHours": [
      "羽球場(館) : 每天開放",
      "開放時間 : 18:30~21:30",
      "租借資訊 : 付費對外場地租借 ",
      "以官方網站資訊為主"
    ],
    "description": "",
    "website": "http://www.tjsps.ntpc.edu.tw",
    "phone": "tel:02-22225533#822"
  },
  {
    "name": "平溪國中活動中心",
    "region": "新北市",
    "address": "新北市平溪區石底街92號",
    "image": "https://iplay.sa.gov.tw/Upload/photogym/20140612220414_圖片1.jpg",
    "hasParking": [
      "無障礙坡道：1"
    ],
    "openingHours": [
      "籃球場 : 週末開放",
      "開放時間 : 08:00~17:00",
      "租借資訊 : 免費對外場地租借 ",
      "羽球場(館) : 週末開放",
      "開放時間 : 08:00~17:00",
      "租借資訊 : 免費對外場地租借 ",
      "躲避球場 : 週末開放",
      "開放時間 : 08:00~17:00",
      "租借資訊 : 免費對外場地租借 ",
      "以官方網站資訊為主"
    ],
    "description": "",
    "website": "http://www.phjh.ntpc.edu.tw",
    "phone": "tel:0224951010,160"
  },
  {
    "name": "永和國民運動中心",
    "region": "新北市",
    "address": "新北市永和區永利路250號",
    "image": "https://iplay.sa.gov.tw/Upload/photogym/20161221160218_NFJK0ZPLGZXLHJL9D961.JPG",
    "hasParking": [
      "無障礙汽車停車格：6",
      "無障礙機踏車停車格：2",
      "無障礙坡道：2",
      "無障礙昇降設備：2",
      "無障礙廁所：7",
      "無障礙淋浴間：6",
      "入水升降座椅(游泳池)：1",
      "入水坡道(游泳池)：1",
      "泳池專用輪椅(游泳池)：1",
      "可調整式球網(羽球)：6"
    ],
    "openingHours": [
      "游泳池 : 特定時間開放",
      "體適能中心 : 特定時間開放",
      "租借資訊 : 付費對外場地租借 ",
      "羽球場 : 特定時間開放",
      "桌球場 : 特定時間開放",
      "租借資訊 : 付費對外場地租借 ",
      "韻律教室 : 每天開放",
      "開放時間 : 6:0~22:00",
      "租借資訊 : 付費對外場地租借 ",
      "壁球室 : 特定時間開放",
      "飛輪教室 : 每天開放",
      "租借資訊 : 付費對外場地租借 ",
      "開放時間 : 6:0~22:00",
      "綜合球場 : 特定時間開放",
      "租借資訊 : 付費對外場地租借 ",
      "攀岩場 : 特定時間開放",
      "健身PT教室 : 每天開放",
      "租借資訊 : 付費對外場地租借 ",
      "開放時間 : 6:0~22:00",
      "漆彈場 : 每天開放",
      "租借資訊 : 付費對外場地租借 ",
      "開放時間 : 13:00-17:00",
      "重量訓練室 : 每天開放",
      "租借資訊 : 付費對外場地租借 ",
      "開放時間 : 06:00-22:00",
      "排球場館 : 特定時間開放",
      "租借資訊 : 付費對外場地租借 ",
      "多功能舞蹈運動教室（含舞蹈教室/韻律教室/瑜珈教室等類型空間） : 特定時間開放",
      "飛輪室 : 特定時間開放",
      "租借資訊 : 付費對外場地租借 ",
      "以官方網站資訊為主"
    ],
    "description": "",
    "website": "https://yhcsc.cyc.org.tw/",
    "phone": "tel:02-22318989"
  },
  {
    "name": "汐止國小活動中心",
    "region": "新北市",
    "address": "新北市汐止區大同路二段313號",
    "image": "https://iplay.sa.gov.tw/Upload/photogym/20140619091028_IMG_1287.jpg",
    "hasParking": [
      "無"
    ],
    "openingHours": [
      "羽球場(館) : 週末開放",
      "開放時間 : 6:30~21:30",
      "租借資訊 : 付費對外場地租借 ",
      "以官方網站資訊為主"
    ],
    "description": "",
    "website": "http://www.hjes.ntpc.edu.tw",
    "phone": "tel:0226477271,203"
  },
  {
    "name": "北峰國小游泳池(館)",
    "region": "新北市",
    "address": "新北市汐止區中興里環河街1號",
    "image": "https://iplay.sa.gov.tw/Upload/photogym/20140617130316_DSCF4520.JPG",
    "hasParking": [
      "無障礙汽車停車格：6",
      "無障礙坡道：1",
      "無障礙昇降設備：1",
      "無障礙廁所：2",
      "無障礙淋浴間：2",
      "入水升降座椅(游泳池)：1"
    ],
    "openingHours": [
      "游泳池(館) : 每天開放",
      "開放時間 : 17:00~200:0000",
      "租借資訊 : 付費對外場地租借 ",
      "北峰國小多功能體育館2F羽球場 : 每天開放",
      "開放時間 : 17:30~22:00",
      "租借資訊 : 付費對外場地租借 ",
      "以官方網站資訊為主"
    ],
    "description": "",
    "website": "http://www.pfes.ntpc.edu.tw/",
    "phone": "tel:02-26941817"
  },
  {
    "name": "海山高中活動中心",
    "region": "新北市",
    "address": "新北市板橋區漢生東路215號",
    "image": "https://iplay.sa.gov.tw/Upload/photogym/20140613092939_活動中心1.JPG",
    "hasParking": [
      "無"
    ],
    "openingHours": [
      "羽球場(館) : 週末開放",
      "開放時間 : 08:00~17:00",
      "租借資訊 : 付費對外場地租借 ",
      "以官方網站資訊為主"
    ],
    "description": "",
    "website": "http://www.hshs.ntpc.edu.tw",
    "phone": "tel:0229517475,223"
  },
  {
    "name": "泰山國中活動中心",
    "region": "新北市",
    "address": "新北市泰山區泰林路二段498號",
    "image": "https://iplay.sa.gov.tw/Upload/photogym/20140612104257_IMAG1988_mh1402906952897.jpg",
    "hasParking": [
      "無障礙汽車停車格：1",
      "無障礙坡道：1"
    ],
    "openingHours": [
      "羽球場(館) : 每天開放",
      "開放時間 : 19:00~21:00",
      "租借資訊 : 付費對外場地租借 ",
      "以官方網站資訊為主"
    ],
    "description": "",
    "website": "http://www.ttcjh.ntpc.edu.tw",
    "phone": "tel:02-22962519#152"
  },
  {
    "name": "淡水國中中正堂-活動中心",
    "region": "新北市",
    "address": "新北市淡水區文化里真理街10號",
    "image": "https://iplay.sa.gov.tw/Upload/photogym/20140617105113_中正堂外觀.JPG",
    "hasParking": [
      "無"
    ],
    "openingHours": [
      "籃球場 : 週末開放",
      "開放時間 : 08:00~17:00",
      "租借資訊 : 付費對外場地租借 ",
      "排球場(館) : 週末開放",
      "開放時間 : 08:00~17:00",
      "租借資訊 : 付費對外場地租借 ",
      "羽球場(館) : 週末開放",
      "開放時間 : 08:00~17:00",
      "租借資訊 : 付費對外場地租借 ",
      "以官方網站資訊為主"
    ],
    "description": "",
    "website": "http://www.tsjh.ntpc.edu.tw",
    "phone": "tel:0226218821"
  },
  {
    "name": "新市國小活動中心",
    "region": "新北市",
    "address": "新北市淡水區中山北路二段200號",
    "image": "https://iplay.sa.gov.tw/Upload/photogym/20140612170256_P1040293.JPG",
    "hasParking": [
      "無"
    ],
    "openingHours": [
      "羽球場(館) : 每天開放",
      "開放時間 : 17:30~21:30",
      "租借資訊 : 付費對外場地租借 ",
      "籃球場 : 每天開放",
      "開放時間 : 17:30~18:30",
      "租借資訊 : 付費對外場地租借 ",
      "足球場 : 每天開放",
      "開放時間 : 17:30~18:30",
      "租借資訊 : 付費對外場地租借 ",
      "以官方網站資訊為主"
    ],
    "description": "",
    "website": "http://album.shmps.kh.edu.tw/~school/web/index.php",
    "phone": "tel:0226262141"
  },
  {
    "name": "東南科技大學夢初體育館",
    "region": "新北市",
    "address": "新北市深坑區北深路三段152號",
    "image": "https://iplay.sa.gov.tw/Upload/photogym/20140714164145_IMG_1846-1.JPG",
    "hasParking": [
      "無障礙汽車停車格：1",
      "無障礙坡道：1",
      "無障礙廁所：1"
    ],
    "openingHours": [
      "籃球場 : 週末開放",
      "開放時間 : 08:00~6:0",
      "租借資訊 : 付費對外場地租借 ",
      "羽球場 : 週末開放",
      "開放時間 : 08:00~6:0",
      "租借資訊 : 付費對外場地租借 ",
      "以官方網站資訊為主"
    ],
    "description": "",
    "website": "http://www.tnu.edu.tw/",
    "phone": "tel:0286625850"
  },
  {
    "name": "新店國民運動中心",
    "region": "新北市",
    "address": "新北市新店區北新路1段88巷12號",
    "image": "https://iplay.sa.gov.tw/Upload/photogym/20210729121607_0Q9TXO4WIYH0HPZLUC5Y.jpg",
    "hasParking": [
      "無障礙淋浴間：5",
      "無障礙廁所：5",
      "入水升降座椅(游泳池)：1",
      "泳池專用輪椅(游泳池)：1"
    ],
    "openingHours": [
      "羽球場館 : 每天開放",
      "租借資訊 : 付費對外場地租借 ",
      "籃球場館 : 每天開放",
      "以官方網站資訊為主"
    ],
    "description": "",
    "website": "http://www.xdsports.com.tw/",
    "phone": "tel:02-66371800"
  },
  {
    "name": "北新國小體育館",
    "region": "新北市",
    "address": "新北市新店區寶橋路8號",
    "image": "https://iplay.sa.gov.tw/Upload/photogym/20140612100733_寬敞多元的教學活動中心.JPG",
    "hasParking": [
      "無障礙汽車停車格：2",
      "無障礙坡道：1",
      "無障礙昇降設備：1",
      "無障礙廁所：2"
    ],
    "openingHours": [
      "籃球場 : 每天開放",
      "開放時間 : 18:00~22:00",
      "租借資訊 : 付費對外場地租借 ",
      "羽球場(館) : 每天開放",
      "開放時間 : 18:00~22:00",
      "租借資訊 : 付費對外場地租借 ",
      "以官方網站資訊為主"
    ],
    "description": "",
    "website": "http://www.tspes.ntpc.edu.tw",
    "phone": "tel:02-29189300#625"
  },
  {
    "name": "新莊國民運動中心",
    "region": "新北市",
    "address": "新北市新莊區公園路11號",
    "image": "https://iplay.sa.gov.tw/Upload/photogym/20150805091345_15108122468_e47443a68b_c.jpg",
    "hasParking": [
      "無障礙汽車停車格：8",
      "無障礙機踏車停車格：1",
      "無障礙昇降設備：1",
      "無障礙坡道：1",
      "無障礙廁所：5",
      "無障礙淋浴間：2",
      "入水升降座椅(游泳池)：1"
    ],
    "openingHours": [
      "游泳池 : 特定時間開放",
      "體適能中心 : 特定時間開放",
      "租借資訊 : 付費對外場地租借 ",
      "桌球場 : 每天開放",
      "開放時間 : 06:0~22:00",
      "租借資訊 : 付費對外場地租借 ",
      "羽球場 : 特定時間開放",
      "攀岩場 : 週末開放",
      "租借資訊 : 付費對外場地租借 ",
      "開放時間 : 8:00~21:000",
      "韻律教室 : 特定時間開放",
      "租借資訊 : 付費對外場地租借 ",
      "室內慢跑道 : 特定時間開放",
      "飛輪教室 : 每天開放",
      "租借資訊 : 付費對外場地租借 ",
      "開放時間 : 6:00~22:00",
      "多功能教室 : 每天開放",
      "租借資訊 : 付費對外場地租借 ",
      "開放時間 : 6:00~22:00",
      "高階教室 : 每天開放",
      "租借資訊 : 付費對外場地租借 ",
      "開放時間 : 6:00~22:00",
      "以官方網站資訊為主"
    ],
    "description": "",
    "website": "https://www.xzsports.com.tw/",
    "phone": "tel:02-77288898"
  },
  {
    "name": "中平國中羽球場",
    "region": "新北市",
    "address": "新北市新莊區中平路385號",
    "image": "https://iplay.sa.gov.tw/Upload/photogym/20140618134124_IMG_0202.JPG",
    "hasParking": [
      "無障礙汽車停車格：1",
      "無障礙坡道：3",
      "無障礙昇降設備：1",
      "無障礙廁所：30"
    ],
    "openingHours": [
      "羽球場(館) : 每天開放",
      "開放時間 : 17:00~18:30",
      "租借資訊 : 免費對外場地租借 ",
      "以官方網站資訊為主"
    ],
    "description": "",
    "website": "http://www.cpjh.ntpc.edu.tw",
    "phone": "tel:0229908092"
  },
  {
    "name": "輔仁大學中美堂",
    "region": "新北市",
    "address": "新北市新莊區中正路510號",
    "image": "https://iplay.sa.gov.tw/Upload/photogym/20140618113628_中美堂外.jpg",
    "hasParking": [
      "無障礙汽車停車格：2",
      "無障礙坡道：1"
    ],
    "openingHours": [
      "籃球場 : 週末開放",
      "開放時間 : 7:0~22:00",
      "租借資訊 : 付費對外場地租借 ",
      "排球場(館) : 週末開放",
      "開放時間 : 7:0~22:00",
      "租借資訊 : 付費對外場地租借 ",
      "羽球場(館) : 週末開放",
      "開放時間 : 7:0~22:00",
      "租借資訊 : 付費對外場地租借 ",
      "以官方網站資訊為主"
    ],
    "description": "",
    "website": "http://www.fju.edu.tw",
    "phone": "tel:0229056436"
  },
  {
    "name": "新莊國中活動中心",
    "region": "新北市",
    "address": "新北市新莊區中正路211號",
    "image": "https://iplay.sa.gov.tw/Upload/photogym/20140612124122_IMAG1165.jpg",
    "hasParking": [
      "無障礙汽車停車格：1",
      "無障礙坡道：1"
    ],
    "openingHours": [
      "羽球場(館) : 每天開放",
      "開放時間 : 6:0~7:30",
      "租借資訊 : 付費對外場地租借 ",
      "以官方網站資訊為主"
    ],
    "description": "",
    "website": "http://www.hcjh.ntpc.edu.tw",
    "phone": "tel:0222766326"
  },
  {
    "name": "瑞芳國中綜合體育館",
    "region": "新北市",
    "address": "新北市瑞芳區三爪子坑路1號",
    "image": "https://iplay.sa.gov.tw/Upload/photogym/20140725114526_相片 2014-7-25 11 24 11.jpg",
    "hasParking": [
      "無障礙坡道：1",
      "無障礙廁所：1"
    ],
    "openingHours": [
      "羽球場(館) : 每天開放",
      "開放時間 : 7:0~17:00",
      "租借資訊 : 付費對外場地租借 ",
      "以官方網站資訊為主"
    ],
    "description": "",
    "website": "http://www.rfjh.ntpc.edu.tw",
    "phone": "tel:0224972145"
  },
  {
    "name": "濂洞國小活動中心",
    "region": "新北市",
    "address": "新北市瑞芳區濓洞里洞頂路101巷80號",
    "image": "https://iplay.sa.gov.tw/Upload/photogym/20140620134618_DSC06695.JPG",
    "hasParking": [
      "無障礙坡道：1"
    ],
    "openingHours": [
      "羽球場(館) : 週末開放",
      "開放時間 : 00:00~00:00",
      "租借資訊 : 付費對外場地租借 ",
      "以官方網站資訊為主"
    ],
    "description": "",
    "website": "http://www.ldes.ntpc.edu.tw/",
    "phone": "tel:0224961330,12"
  },
  {
    "name": "瑞芳國小活動中心",
    "region": "新北市",
    "address": "新北市瑞芳區龍川里中山路2號",
    "image": "https://iplay.sa.gov.tw/Upload/photogym/20140616102048_ZOE_0032.jpg",
    "hasParking": [
      "無障礙廁所：1",
      "無障礙淋浴間：1"
    ],
    "openingHours": [
      "瑞芳國小籃球場 : 週末開放",
      "開放時間 : 08:00~16:00",
      "租借資訊 : 付費對外場地租借 ",
      "瑞芳國小羽球場(館) : 週末開放",
      "開放時間 : 08:00~21:00",
      "租借資訊 : 付費對外場地租借 ",
      "以官方網站資訊為主"
    ],
    "description": "",
    "website": "http://www.rfes.ntpc.edu.tw",
    "phone": "tel:0224972058,123"
  },
  {
    "name": "樹林國小羽球館",
    "region": "新北市",
    "address": "新北市樹林區樹西里育英街176號",
    "image": "https://iplay.sa.gov.tw/Upload/photogym/20140707201446_1.jpg",
    "hasParking": [
      "無障礙坡道：1"
    ],
    "openingHours": [
      "樹林國小羽球館 : 每天開放",
      "開放時間 : 00:00~20:00",
      "租借資訊 : 付費對外場地租借 ",
      "以官方網站資訊為主"
    ],
    "description": "",
    "website": "http://www.slps.ntpc.edu.tw",
    "phone": "tel:0226812014,837"
  },
  {
    "name": "樹林高中活動中心",
    "region": "新北市",
    "address": "新北市樹林區中華路8號",
    "image": "https://iplay.sa.gov.tw/Upload/photogym/20140620105212_活動中心.JPG",
    "hasParking": [
      "無障礙坡道：1",
      "無障礙廁所：1"
    ],
    "openingHours": [
      "手球場(館) : 每天開放",
      "開放時間 : 200:00~22:00",
      "租借資訊 : 付費對外場地租借 ",
      "籃球場 : 每天開放",
      "開放時間 : 200:00~22:00",
      "租借資訊 : 付費對外場地租借 ",
      "羽球場(館) : 每天開放",
      "開放時間 : 200:00~22:00",
      "租借資訊 : 付費對外場地租借 ",
      "桌球場(館) : 每天開放",
      "開放時間 : 18:00~20:30",
      "租借資訊 : 付費對外場地租借 ",
      "跆拳道場/館 : 每天開放",
      "開放時間 : 18:00~20:30",
      "租借資訊 : 付費對外場地租借 ",
      "以官方網站資訊為主"
    ],
    "description": "",
    "website": "http://www.slsh.ntpc.edu.tw",
    "phone": "tel:0286852011,3101"
  },
  {
    "name": "山佳國小後村堂",
    "region": "新北市",
    "address": "新北市樹林區中山路三段5號",
    "image": "https://iplay.sa.gov.tw/Upload/photogym/20140618101545_L97PL.jpg",
    "hasParking": [
      "無障礙汽車停車格：1"
    ],
    "openingHours": [
      "羽球場(館) : 特定時間開放",
      "租借資訊 : 付費對外場地租借",
      "以官方網站資訊為主"
    ],
    "description": "",
    "website": "https://www.sjes.ntpc.edu.tw/index.php",
    "phone": "tel:02-26806673#823"
  },
  {
    "name": "大同國小活動中心",
    "region": "新北市",
    "address": "新北市樹林區大同里大同街43號",
    "image": "https://iplay.sa.gov.tw/Upload/photogym/20140617153715_DSC_0171.JPG",
    "hasParking": [
      "無"
    ],
    "openingHours": [
      "羽球場(館) : 週末開放",
      "開放時間 : 09:00~18:00",
      "租借資訊 : 付費對外場地租借 ",
      "以官方網站資訊為主"
    ],
    "description": "",
    "website": "http://www.ttps.ntpc.edu.tw",
    "phone": "tel:0286865486,833"
  },
  {
    "name": "桃子腳國(中)小風雨操場",
    "region": "新北市",
    "address": "新北市樹林區學勤路555號",
    "image": "https://iplay.sa.gov.tw/Upload/photogym/20140616122042_L_2014-5-8-12-23-11.jpg",
    "hasParking": [
      "無障礙汽車停車格：1"
    ],
    "openingHours": [
      "籃球場 : 每天開放",
      "開放時間 : 17:00~18:00",
      "租借資訊 : 付費對外場地租借 ",
      "羽球場(館) : 每天開放",
      "開放時間 : 17:00~18:00",
      "租借資訊 : 付費對外場地租借 ",
      "躲避球場 : 每天開放",
      "開放時間 : 17:00~18:00",
      "租借資訊 : 付費對外場地租借 ",
      "以官方網站資訊為主"
    ],
    "description": "",
    "website": "http://www.tykjh.ntpc.edu.tw",
    "phone": "tel:0289703225,8230"
  },
  {
    "name": "育德國小活動中心",
    "region": "新北市",
    "address": "新北市樹林區中山里佳園路一段34號",
    "image": "https://iplay.sa.gov.tw/Upload/photogym/20140613110954_44227.jpg",
    "hasParking": [
      "無障礙坡道：1"
    ],
    "openingHours": [
      "羽球場(館) : 平日開放",
      "開放時間 : 08:00~17:00",
      "租借資訊 : 付費對外場地租借 ",
      "以官方網站資訊為主"
    ],
    "description": "",
    "website": "http://www.ytps.ntpc.edu.tw",
    "phone": "tel:0226805557"
  },
  {
    "name": "雙溪高中活動中心",
    "region": "新北市",
    "address": "新北市雙溪區梅竹蹊3號",
    "image": "https://iplay.sa.gov.tw/Upload/photogym/20140605151341_IMG_20140606_095824.jpg",
    "hasParking": [
      "無"
    ],
    "openingHours": [
      "籃球場 : 週末開放",
      "開放時間 : 08:00~17:00",
      "租借資訊 : 付費對外場地租借 ",
      "羽球場(館) : 週末開放",
      "開放時間 : 08:00~17:00",
      "租借資訊 : 付費對外場地租借 ",
      "以官方網站資訊為主"
    ],
    "description": "",
    "website": "http://www.sxhs.ntpc.edu.tw",
    "phone": "tel:0224931028,221"
  },
  {
    "name": "蘆洲國中排球場",
    "region": "新北市",
    "address": "新北市蘆洲區中正路265號",
    "image": "https://iplay.sa.gov.tw/Upload/photogym/20170704150449_TPNRSZK9BHKL1YMCFPH2.jpg",
    "hasParking": [
      "無"
    ],
    "openingHours": [
      "羽球場(館) : 週末開放",
      "開放時間 : 7:0~19:00",
      "租借資訊 : 付費對外場地租借 ",
      "以官方網站資訊為主"
    ],
    "description": "",
    "website": "http://www.lcjh.ntpc.edu.tw",
    "phone": "tel:0222811571,215"
  },
  {
    "name": "蘆洲國民運動中心",
    "region": "新北市",
    "address": "新北巿蘆洲區長樂路235-1號",
    "image": "https://iplay.sa.gov.tw/Upload/photogym/20140923095508_外觀照1.jpg",
    "hasParking": [
      "無障礙汽車停車格：2",
      "無障礙機踏車停車格：2",
      "無障礙昇降設備：1",
      "無障礙廁所：5",
      "無障礙淋浴間：7",
      "無障礙坡道：1",
      "入水坡道(游泳池)：1",
      "入水升降座椅(游泳池)：1",
      "移位機或升降機(游泳池)：1",
      "泳池專用輪椅(游泳池)：4"
    ],
    "openingHours": [
      "游泳池 : 特定時間開放",
      "撞球室 : 特定時間開放",
      "租借資訊 : 免費對外場地租借 ",
      "飛輪教室 : 特定時間開放",
      "體適能中心 : 特定時間開放",
      "租借資訊 : 免費對外場地租借 ",
      "韻律教室 : 每天開放",
      "開放時間 : 6:0~22:00",
      "租借資訊 : 免費對外場地租借 ",
      "羽球場 : 特定時間開放",
      "攀岩場 : 特定時間開放",
      "租借資訊 : 免費對外場地租借 ",
      "桌球室 : 特定時間開放",
      "壁球室 : 特定時間開放",
      "租借資訊 : 免費對外場地租借 ",
      "綜合球場 : 特定時間開放",
      "射箭場、五人制足球場 : 特定時間開放",
      "租借資訊 : 免費對外場地租借 ",
      "排球場館 : 特定時間開放",
      "飛輪室 : 特定時間開放",
      "租借資訊 : 免費對外場地租借 ",
      "TRX室 : 特定時間開放",
      "以官方網站資訊為主"
    ],
    "description": "",
    "website": "https://lzcsc.cyc.org.tw",
    "phone": "tel:02-22810338"
  },
  {
    "name": "鷺江國小活動中心",
    "region": "新北市",
    "address": "新北市蘆洲區民族路7號",
    "image": "https://iplay.sa.gov.tw/Upload/photogym/20140618081747_GA5J7.jpg",
    "hasParking": [
      "無障礙坡道：2",
      "無障礙昇降設備：2",
      "無障礙廁所：2",
      "無障礙淋浴間：2"
    ],
    "openingHours": [
      "羽球場(館) : 每天開放",
      "開放時間 : 19:00~22:00",
      "租借資訊 : 付費對外場地租借 ",
      "以官方網站資訊為主"
    ],
    "description": "",
    "website": "http://www.lcps.ntpc.edu.tw",
    "phone": "tel:02-22819980#9504"
  },
  {
    "name": "大忠國小活動中心",
    "region": "桃園市",
    "address": "桃園市八德區忠誠街18號",
    "image": "https://iplay.sa.gov.tw/Upload/photogym/20140610153333_D:\\103年度\\活動中心.jpg",
    "hasParking": [
      "無障礙汽車停車格：2",
      "無障礙坡道：1",
      "無障礙廁所：2"
    ],
    "openingHours": [
      "羽球場(館) : 平日開放",
      "租借資訊 : 付費對外場地租借 ",
      "開放時間 : 18:30~21:30",
      "以官方網站資訊為主"
    ],
    "description": "",
    "website": "http://www.djes.tyc.edu.tw",
    "phone": "tel:033635206,511"
  },
  {
    "name": "台61橋下羽球場",
    "region": "桃園市",
    "address": "桃園市大園區潮音北路473號旁(潮音派出所對面61號橋下)",
    "image": "https://iplay.sa.gov.tw/Upload/photogym/20231103120416_XITBB.jpg",
    "hasParking": [
      "無"
    ],
    "openingHours": [
      "羽球場館 : 特定時間開放",
      "租借資訊 : 免費對外場地租借",
      "以官方網站資訊為主"
    ],
    "description": "",
    "website": null,
    "phone": "tel:03-3867703#115"
  },
  {
    "name": "百吉國小風雨教室",
    "region": "桃園市",
    "address": "桃園市大溪區復興里3鄰環湖路二段845號",
    "image": "https://iplay.sa.gov.tw/Upload/photogym/20140616145750_圖片2.jpg",
    "hasParking": [
      "無障礙坡道：1"
    ],
    "openingHours": [
      "羽球場(館) : 平日開放",
      "開放時間 : 16:00~18:00",
      "租借資訊 : 付費對外場地租借 ",
      "以官方網站資訊為主"
    ],
    "description": "",
    "website": "http://www.pces.tyc.edu.tw",
    "phone": "tel:033883956,511"
  },
  {
    "name": "新街國小羽球場(館)",
    "region": "桃園市",
    "address": "桃園市中壢區新街里延平路176號",
    "image": "https://iplay.sa.gov.tw/Upload/photogym/20140630145617_20140630_143351.jpg",
    "hasParking": [
      "無"
    ],
    "openingHours": [
      "羽球場(館) : 每天開放",
      "開放時間 : 08:00~21:00",
      "租借資訊 : 付費對外場地租借 ",
      "以官方網站資訊為主"
    ],
    "description": "",
    "website": "http://www.sjes.tyc.edu.tw",
    "phone": "tel:034523202"
  },
  {
    "name": "文昌國中活動中心",
    "region": "桃園市",
    "address": "桃園市桃園區信光里10鄰大連二街188號",
    "image": "https://iplay.sa.gov.tw/Upload/photogym/20210611141105_MKFVMIBLOG5CYE8Q6PD2.JPG",
    "hasParking": [
      "無障礙汽車停車格：1"
    ],
    "openingHours": [
      "羽球場館 : 特定時間開放",
      "籃球場館 : 特定時間開放",
      "租借資訊 : 免費對外場地租借 ",
      "排球場館 : 特定時間開放",
      "以官方網站資訊為主"
    ],
    "description": "",
    "website": null,
    "phone": "tel:033552776,510"
  },
  {
    "name": "桃園高中中正堂",
    "region": "桃園市",
    "address": "桃園市桃園區成功路三段38號",
    "image": "https://iplay.sa.gov.tw/Upload/photogym/20140529155551_中山堂-籃球場、排球場(001).jpg",
    "hasParking": [
      "無障礙坡道：1"
    ],
    "openingHours": [
      "羽球場(館) : 週末開放",
      "開放時間 : 08:00~22:00",
      "租借資訊 : 付費對外場地租借 ",
      "以官方網站資訊為主"
    ],
    "description": "",
    "website": "http://www.tysh.tyc.edu.tw",
    "phone": "tel:033946001"
  },
  {
    "name": "介壽國小羽球場(館)",
    "region": "桃園市",
    "address": "桃園市復興區澤仁里中正路33號",
    "image": "https://iplay.sa.gov.tw/Upload/photogym/20140627100905_DSCI04444.jpg",
    "hasParking": [
      "無障礙廁所：1"
    ],
    "openingHours": [
      "羽球場(館) : 平日開放",
      "開放時間 : 16:30~18:00",
      "租借資訊 : 付費對外場地租借 ",
      "以官方網站資訊為主"
    ],
    "description": "",
    "website": "http://www.jses.tyc.edu.tw",
    "phone": "tel:033822364,51"
  },
  {
    "name": "童曦館",
    "region": "桃園市",
    "address": "桃園市新屋區中山西路一段474號",
    "image": "https://iplay.sa.gov.tw/Upload/photogym/20140627161031_DSCN062701.jpg",
    "hasParking": [
      "無障礙坡道：1"
    ],
    "openingHours": [
      "躲避球場 : 平日開放",
      "開放時間 : 17:00~17:30",
      "租借資訊 : 付費對外場地租借 ",
      "籃球場館 : 平日開放",
      "開放時間 : 17:00~17:30",
      "租借資訊 : 付費對外場地租借 ",
      "羽球場館 : 平日開放",
      "開放時間 : 17:00~17:30",
      "租借資訊 : 付費對外場地租借 ",
      "以官方網站資訊為主"
    ],
    "description": "",
    "website": "http://www.tmes.tyc.edu.tw",
    "phone": "tel:034772500,510"
  },
  {
    "name": "大同國小活動中心",
    "region": "桃園市",
    "address": "桃園市楊梅區新農街85號",
    "image": "https://iplay.sa.gov.tw/Upload/photogym/20200421111325_OBWL5FG5HRGI8KBVKWJW.JPG",
    "hasParking": [
      "無障礙汽車停車格：2",
      "無障礙坡道：1",
      "無障礙昇降設備：1",
      "無障礙廁所：1"
    ],
    "openingHours": [
      "羽球場(館) : 平日開放",
      "開放時間 : 7:00~16:00",
      "租借資訊 : 付費對外場地租借 ",
      "以官方網站資訊為主"
    ],
    "description": "",
    "website": "http://www.ttps.tyc.edu.tw",
    "phone": "tel:034782249,321"
  },
  {
    "name": "富岡國小活動中心",
    "region": "桃園市",
    "address": "桃園市楊梅區豐野里中正路147號",
    "image": "https://iplay.sa.gov.tw/Upload/photogym/20140612092251_IMAG0560.jpg",
    "hasParking": [
      "無障礙汽車停車格：1",
      "無障礙坡道：2",
      "無障礙廁所：1"
    ],
    "openingHours": [
      "羽球場(館) : 平日開放",
      "開放時間 : 15:30~17:00",
      "租借資訊 : 付費對外場地租借 ",
      "以官方網站資訊為主"
    ],
    "description": "",
    "website": "http://www.fges.tyc.edu.tw",
    "phone": "tel:034721193"
  },
  {
    "name": "瑞坪國中羽球場(館)",
    "region": "桃園市",
    "address": "桃園市楊梅區瑞坪里14鄰文化街535號",
    "image": "https://iplay.sa.gov.tw/Upload/photogym/20140611105507_室內訓練場地 (2).JPG",
    "hasParking": [
      "無障礙汽車停車格：1",
      "無障礙坡道：1",
      "無障礙昇降設備：1",
      "無障礙廁所：1"
    ],
    "openingHours": [
      "羽球場(館) : 平日開放",
      "開放時間 : 19:00~21:30",
      "租借資訊 : 付費對外場地租借 ",
      "以官方網站資訊為主"
    ],
    "description": "",
    "website": "http://www.rpjhs.tyc.edu.tw",
    "phone": "tel:034821468,511"
  },
  {
    "name": "水美國小風雨操場",
    "region": "桃園市",
    "address": "桃園市楊梅區水美里楊新路一段410號",
    "image": "https://iplay.sa.gov.tw/Upload/photogym/20140610095250_DSC05009.JPG",
    "hasParking": [
      "無障礙汽車停車格：14",
      "無障礙機踏車停車格：8",
      "無障礙坡道：1"
    ],
    "openingHours": [
      "風雨教室 : 週末開放",
      "開放時間 : 08:00~17:00",
      "租借資訊 : 付費對外場地租借 ",
      "以官方網站資訊為主"
    ],
    "description": "",
    "website": "http://www.smps.tyc.edu.tw",
    "phone": "tel:03-4782770#510"
  },
  {
    "name": "大崗國小活動中心",
    "region": "桃園市",
    "address": "桃園市龜山區大崗里20鄰大湖一路175號",
    "image": "https://iplay.sa.gov.tw/Upload/photogym/20160505144658_20160505_125535_resized.jpg",
    "hasParking": [
      "無障礙汽車停車格：1",
      "無障礙廁所：1"
    ],
    "openingHours": [
      "羽球場(館) : 週末開放",
      "開放時間 : 08:00~16:00",
      "租借資訊 : 付費對外場地租借 ",
      "以官方網站資訊為主"
    ],
    "description": "",
    "website": "http://www.dges.tyc.edu.tw",
    "phone": "tel:03-3282457#511"
  },
  {
    "name": "體育大學羽球場(館)",
    "region": "桃園市",
    "address": "桃園市龜山區文化一路250號",
    "image": "https://iplay.sa.gov.tw/Upload/photogym/20140715112135_IMG_9850.JPG",
    "hasParking": [
      "無"
    ],
    "openingHours": [
      "羽球場(館) : 平日開放",
      "開放時間 : 08:00~21:00",
      "租借資訊 : 付費對外場地租借 ",
      "以官方網站資訊為主"
    ],
    "description": "",
    "website": "http://www.ntsu.edu.tw",
    "phone": "tel:033283201,2204"
  },
  {
    "name": "光啟高中田徑場",
    "region": "桃園市",
    "address": "桃園市龜山區自由街40號",
    "image": "https://iplay.sa.gov.tw/Upload/photogym/20140604082800_IMG_0863.jpg",
    "hasParking": [
      "無障礙汽車停車格：1",
      "無障礙坡道：4",
      "無障礙昇降設備：1",
      "無障礙廁所：7"
    ],
    "openingHours": [
      "田徑場 : 每天開放",
      "開放時間 : 17:00~18:30",
      "租借資訊 : 付費對外場地租借 ",
      "籃球場 : 每天開放",
      "開放時間 : 17:00~18:30",
      "租借資訊 : 付費對外場地租借 ",
      "羽球場 : 每天開放",
      "開放時間 : 17:00~18:30",
      "租借資訊 : 付費對外場地租借 ",
      "排球場 : 每天開放",
      "開放時間 : 17:00~18:30",
      "租借資訊 : 付費對外場地租借 ",
      "以官方網站資訊為主"
    ],
    "description": "",
    "website": "http://www.phsh.tyc.edu.tw",
    "phone": "tel:0282098313,501"
  },
  {
    "name": "錦興國小藝文活動中心",
    "region": "桃園市",
    "address": "桃園市蘆竹區南竹路一段100號",
    "image": "https://iplay.sa.gov.tw/Upload/photogym/20170706195012_CS6FPCF3NL4RWT9R0CCK.jpg",
    "hasParking": [
      "無障礙坡道：1",
      "無障礙昇降設備：1",
      "無障礙廁所：1"
    ],
    "openingHours": [
      "羽球場(館) : 平日開放",
      "開放時間 : 00:00~0:30",
      "租借資訊 : 付費對外場地租借 ",
      "籃球場 : 週末開放",
      "開放時間 : 08:00~19:00",
      "租借資訊 : 付費對外場地租借 ",
      "以官方網站資訊為主"
    ],
    "description": "",
    "website": "http://www.gses.tyc.edu.tw",
    "phone": "tel:033228487,313"
  },
  {
    "name": "桃園市立蘆竹羽球館",
    "region": "桃園市",
    "address": "桃園市蘆竹區錦溪路69號",
    "image": "https://iplay.sa.gov.tw/Upload/photogym/20150803192351_ECW00.jpg",
    "hasParking": [
      "無障礙汽車停車格：1",
      "無障礙坡道：1",
      "無障礙昇降設備：1",
      "無障礙廁所：1"
    ],
    "openingHours": [
      "羽球場(館) : 每天開放",
      "開放時間 : 0600-2200",
      "租借資訊 : 付費對外場地租借 ",
      "多功能健身房/體適能中心（此空間中具有兩種以上之阻力運動器材設備） : 特定時間開放",
      "以官方網站資訊為主"
    ],
    "description": "",
    "website": "https://www.facebook.com/LuzhuBadminton",
    "phone": "tel:03-3520922"
  },
  {
    "name": "學生活動中心",
    "region": "桃園市",
    "address": "桃園市蘆竹區光明路一段123號",
    "image": "https://iplay.sa.gov.tw/Upload/photogym/20140619171423_活動中心外觀照片.JPG",
    "hasParking": [
      "無障礙汽車停車格：3",
      "無障礙坡道：1",
      "無障礙廁所：1"
    ],
    "openingHours": [
      "籃球場 : 平日開放",
      "開放時間 : 18:30~21:30",
      "租借資訊 : 付費對外場地租借 ",
      "以官方網站資訊為主"
    ],
    "description": "",
    "website": "http://www.gmjh.tyc.edu.tw",
    "phone": "tel:03-3114355#312"
  },
  {
    "name": "大竹國中活動中心",
    "region": "桃園市",
    "address": "桃園市蘆竹區大竹村四鄰國中巷35號",
    "image": "https://iplay.sa.gov.tw/Upload/photogym/20140610165256_P2083228.JPG",
    "hasParking": [
      "無障礙坡道：1"
    ],
    "openingHours": [
      "籃球場 : 每天開放",
      "開放時間 : 08:00~20:30",
      "租借資訊 : 付費對外場地租借 ",
      "羽球場(館) : 每天開放",
      "開放時間 : 08:00~20:30",
      "租借資訊 : 付費對外場地租借 ",
      "以官方網站資訊為主"
    ],
    "description": "",
    "website": "http://www.dcjh.tyc.edu.tw",
    "phone": "tel:03-3232764"
  },
  {
    "name": "新坡多功能場館綜合球場",
    "region": "桃園市",
    "address": "桃園市觀音區新坡里新生路76巷8弄1號",
    "image": "https://iplay.sa.gov.tw/Upload/photogym/20140623101828_73JU7P6AYSDQ7HC3HVVC.jpg",
    "hasParking": [
      "無障礙汽車停車格：1"
    ],
    "openingHours": [
      "羽球場(館) : 每天開放",
      "開放時間 : 18:00~21:00",
      "租借資訊 : 免費對外場地租借 ",
      "以官方網站資訊為主"
    ],
    "description": "",
    "website": null,
    "phone": "tel:03-4732121#226"
  },
  {
    "name": "新坡國小活動中心",
    "region": "桃園市",
    "address": "桃園市觀音區新坡村中山路二段717號",
    "image": "https://iplay.sa.gov.tw/Upload/photogym/20140619153236_IMG_0026.JPG",
    "hasParking": [
      "無障礙汽車停車格：1",
      "無障礙坡道：1",
      "無障礙昇降設備：1"
    ],
    "openingHours": [
      "羽球場(館) : 平日開放",
      "開放時間 : 17:00~19:00",
      "租借資訊 : 付費對外場地租借 ",
      "以官方網站資訊為主"
    ],
    "description": "",
    "website": "http://www.spes.tyc.edu.tw",
    "phone": "tel:034981534,511"
  },
  {
    "name": "觀音國中活動中心",
    "region": "桃園市",
    "address": "桃園市觀音區白玉村下庄子53之1號",
    "image": "https://iplay.sa.gov.tw/Upload/photogym/20140618151011_IMG_0743.jpg",
    "hasParking": [
      "無障礙汽車停車格：1",
      "無障礙坡道：1",
      "無障礙廁所：1"
    ],
    "openingHours": [
      "羽球場(館) : 每天開放",
      "開放時間 : 00:00~00:00",
      "租借資訊 : 付費對外場地租借 ",
      "籃球場 : 每天開放",
      "開放時間 : 00:00~00:00",
      "租借資訊 : 付費對外場地租借 ",
      "以官方網站資訊為主"
    ],
    "description": "",
    "website": "http://www.gijh.tyc.edu.tw",
    "phone": "tel:034732034,511"
  },
  {
    "name": "崙坪國小風雨教室",
    "region": "桃園市",
    "address": "桃園市觀音區崙坪里學府路123號",
    "image": "https://iplay.sa.gov.tw/Upload/photogym/20140609150810_DSCN5723.JPG",
    "hasParking": [
      "無障礙汽車停車格：1",
      "無障礙坡道：1",
      "無障礙廁所：2"
    ],
    "openingHours": [
      "羽球場(館) : 週末開放",
      "開放時間 : 09:00~21:00",
      "租借資訊 : 付費對外場地租借 ",
      "以官方網站資訊為主"
    ],
    "description": "",
    "website": "http://www.lpes.tyc.edu.tw",
    "phone": "tel:034981286,310"
  },
  {
    "name": "新竹市立竹光國民運動中心",
    "region": "新竹市",
    "address": "新竹市北區竹光路325號",
    "image": "https://iplay.sa.gov.tw/Upload/photogym/20190303173927_HDGYXTR7D5JL8MON6K1G.JPG",
    "hasParking": [
      "無障礙汽車停車格：2",
      "無障礙機踏車停車格：2",
      "無障礙淋浴間：1",
      "無障礙坡道：2",
      "無障礙昇降設備：1",
      "無障礙廁所：4",
      "入水升降座椅(游泳池)：1",
      "泳池專用輪椅(游泳池)：1"
    ],
    "openingHours": [
      "羽球場館 : 特定時間開放",
      "開放時間 : 6:00-22:00",
      "以官方網站資訊為主"
    ],
    "description": "",
    "website": "https://zgcsc.cyc.org.tw",
    "phone": "tel:03-5223899"
  },
  {
    "name": "室內羽球場",
    "region": "新竹市",
    "address": "新竹市東區光復路一段512號",
    "image": "https://iplay.sa.gov.tw/Upload/photogym/20160509092748_光武國中校園.jpg",
    "hasParking": [
      "無"
    ],
    "openingHours": [
      "羽球場(館) : 每天開放",
      "開放時間 : 19:00~21:00",
      "租借資訊 : 付費對外場地租借 ",
      "以官方網站資訊為主"
    ],
    "description": "",
    "website": "http://www.gwjh.hc.edu.tw",
    "phone": "tel:035773934,701"
  },
  {
    "name": "新竹市立新科國民運動中心",
    "region": "新竹市",
    "address": "新竹市東區光復路一段89巷90號",
    "image": "https://iplay.sa.gov.tw/Upload/photogym/20150813174208_IMG_0977.JPG",
    "hasParking": [
      "無障礙坡道：1",
      "無障礙昇降設備：2",
      "無障礙廁所：4",
      "輪椅觀眾席：5",
      "輪椅觀眾席：5",
      "輪椅觀眾席：5",
      "入水升降座椅(游泳池)：1",
      "其他：1",
      "其他：1",
      "可調整式球框(籃球)：2"
    ],
    "openingHours": [
      "籃球場 : 特定時間開放",
      "健身房(含重量訓練室) : 特定時間開放",
      "租借資訊 : 付費對外場地租借 ",
      "舞蹈教室 : 特定時間開放",
      "桌球場(館) : 特定時間開放",
      "租借資訊 : 付費對外場地租借 ",
      "游泳池(館) : 特定時間開放",
      "羽球場(館) : 特定時間開放",
      "租借資訊 : 付費對外場地租借 ",
      "無障礙設施 : 每天開放",
      "開放時間 : 6:0~22:00",
      "租借資訊 : 付費對外場地租借 ",
      "飛輪室 : 特定時間開放",
      "TRX室 : 特定時間開放",
      "租借資訊 : 付費對外場地租借 ",
      "以官方網站資訊為主"
    ],
    "description": "",
    "website": "http://www.hksports.com.tw/",
    "phone": "tel:03-5797929"
  },
  {
    "name": "港南國小小型體育館",
    "region": "新竹市",
    "address": "新竹市香山區海埔路171巷91號",
    "image": "https://iplay.sa.gov.tw/Upload/photogym/20140604111123_DSC04346.JPG",
    "hasParking": [
      "無障礙汽車停車格：1",
      "無障礙廁所：1"
    ],
    "openingHours": [
      "羽球場(館) : 每天開放",
      "開放時間 : 16:00~20:00",
      "租借資訊 : 付費對外場地租借 ",
      "以官方網站資訊為主"
    ],
    "description": "",
    "website": "http://www.gnps.hc.edu.tw",
    "phone": "tel:03-5382964#13"
  },
  {
    "name": "十興國小體育館",
    "region": "新竹縣竹北市",
    "address": "新竹縣竹北市莊敬北路66號",
    "image": "https://iplay.sa.gov.tw/Upload/photogym/20140603155828_IMG_0446.jpg",
    "hasParking": [
      "無障礙坡道：1",
      "無障礙廁所：1"
    ],
    "openingHours": [
      "羽球場(館) : 每天開放",
      "開放時間 : 18:00~21:00",
      "租借資訊 : 付費對外場地租借 ",
      "以官方網站資訊為主"
    ],
    "description": "",
    "website": "http://www.shps.hcc.edu.tw/front/bin/home.phtml",
    "phone": "tel:036583517"
  },
  {
    "name": "山崎國小活動中心",
    "region": "新竹縣",
    "address": "新竹縣新豐鄉新興路291號",
    "image": "https://iplay.sa.gov.tw/Upload/photogym/20140606104036_HP0104.jpg",
    "hasParking": [
      "無"
    ],
    "openingHours": [
      "羽球場(館) : 週末開放",
      "開放時間 : 08:00~20:00",
      "租借資訊 : 付費對外場地租借 ",
      "籃球場 : 週末開放",
      "開放時間 : 08:00~20:00",
      "租借資訊 : 付費對外場地租借 ",
      "以官方網站資訊為主"
    ],
    "description": "",
    "website": "http://www.sces.hcc.edu.tw",
    "phone": "tel:035592714,830"
  },
  {
    "name": "羽球場館",
    "region": "新竹縣",
    "address": "新竹縣新豐鄉松林街99號",
    "image": "https://iplay.sa.gov.tw/Upload/photogym/20140604170820_DSC02278.JPG",
    "hasParking": [
      "無障礙汽車停車格：1",
      "無障礙坡道：1",
      "無障礙昇降設備：1",
      "無障礙廁所：1"
    ],
    "openingHours": [],
    "description": "",
    "website": "http://www.clps.hcc.edu.tw/front/bin/home.phtml",
    "phone": "tel:03-5573601#831"
  },
  {
    "name": "卓蘭國小活動中心",
    "region": "苗栗縣",
    "address": "苗栗縣卓蘭鎮新厝里中山路125號",
    "image": "https://iplay.sa.gov.tw/Upload/photogym/20140616143153_2014-06-16 08.41.03.jpg",
    "hasParking": [
      "無障礙汽車停車格：1",
      "無障礙坡道：1"
    ],
    "openingHours": [
      "羽球場(館) : 週末開放",
      "開放時間 : 08:00~17:00",
      "租借資訊 : 付費對外場地租借 ",
      "以官方網站資訊為主"
    ],
    "description": "",
    "website": "http://www.jles.mlc.edu.tw",
    "phone": "tel:0425892008,723"
  },
  {
    "name": "苗栗農工中正堂",
    "region": "苗栗縣",
    "address": "苗栗縣苗栗市經國路二段491號",
    "image": "https://iplay.sa.gov.tw/Upload/photogym/20140617113152_P1130199.JPG",
    "hasParking": [
      "無"
    ],
    "openingHours": [
      "籃球場 : 週末開放",
      "開放時間 : 17:30~19:30",
      "租借資訊 : 付費對外場地租借 ",
      "羽球場(館) : 週末開放",
      "開放時間 : 17:30~19:30",
      "租借資訊 : 付費對外場地租借 ",
      "籃球場 : 週末開放",
      "開放時間 : 17:30~19:30",
      "租借資訊 : 付費對外場地租借 ",
      "以官方網站資訊為主"
    ],
    "description": "",
    "website": "http://www.mlaivs.mlc.edu.tw",
    "phone": "tel:0928319835"
  },
  {
    "name": "聯合大學第一(二坪山)校區活動中心3F體育館",
    "region": "苗栗縣苗栗市",
    "address": "苗栗縣苗栗市恭敬里聯大1號",
    "image": "https://iplay.sa.gov.tw/Upload/photogym/20140530103330_活動中心體育館2.JPG",
    "hasParking": [
      "無障礙汽車停車格：2",
      "無障礙坡道：2",
      "無障礙昇降設備：1"
    ],
    "openingHours": [
      "籃球場 : 每天開放",
      "開放時間 : 08:00~21:30",
      "租借資訊 : 付費對外場地租借 ",
      "排球場(館) : 每天開放",
      "開放時間 : 08:00~21:30",
      "租借資訊 : 付費對外場地租借 ",
      "羽球場(館) : 每天開放",
      "開放時間 : 100:00~21:00",
      "租借資訊 : 付費對外場地租借 ",
      "以官方網站資訊為主"
    ],
    "description": "",
    "website": "http://www.nuu.edu.tw",
    "phone": "tel:037381273"
  },
  {
    "name": "六合國小活動中心",
    "region": "苗栗縣頭份市",
    "address": "苗栗縣頭份市東庄里民族路252號",
    "image": "https://iplay.sa.gov.tw/Upload/photogym/20140701123308_DSC_0168.jpg",
    "hasParking": [
      "無障礙汽車停車格：1",
      "無障礙坡道：1"
    ],
    "openingHours": [
      "羽球場(館) : 每天開放",
      "開放時間 : 18:00~23:00",
      "租借資訊 : 付費對外場地租借 ",
      "以官方網站資訊為主"
    ],
    "description": "",
    "website": "http://www.lhes.mlc.edu.tw",
    "phone": "tel:037663065,852"
  },
  {
    "name": "頭份國民小學活動中心",
    "region": "苗栗縣",
    "address": "苗栗縣頭份鎮頭份里中正路219號",
    "image": "https://iplay.sa.gov.tw/Upload/photogym/20140623091808_IMG_20140616_090811.jpg",
    "hasParking": [
      "無"
    ],
    "openingHours": [
      "活動中心 : 週末開放",
      "開放時間 : 08:00~21:00",
      "租借資訊 : 付費對外場地租借 ",
      "以官方網站資訊為主"
    ],
    "description": "",
    "website": "http://www.tfes.mlc.edu.tw/index1.php",
    "phone": "tel:037663020,24"
  },
  {
    "name": "海墘國小活動中心",
    "region": "臺中市",
    "address": "臺中市大安區海墘里大安港路1100號",
    "image": "https://iplay.sa.gov.tw/Upload/photogym/20140722104006_IMG_5046.JPG",
    "hasParking": [
      "無障礙坡道：1",
      "無障礙廁所：2"
    ],
    "openingHours": [
      "活動中心 : 平日開放",
      "開放時間 : 19:30~21:30",
      "租借資訊 : 付費對外場地租借 ",
      "以官方網站資訊為主"
    ],
    "description": "",
    "website": "http://www.hices.tc.edu.tw",
    "phone": "tel:0426876085,250"
  },
  {
    "name": "仁美國小羽球場(館)",
    "region": "臺中市",
    "address": "臺中市北屯區崇德路三段568號",
    "image": "https://iplay.sa.gov.tw/Upload/photogym/20140721152925_10520896_812396245446212_1459501056_n (1).jpg",
    "hasParking": [
      "無障礙汽車停車格：2",
      "無障礙坡道：1",
      "無障礙昇降設備：2",
      "無障礙廁所：2"
    ],
    "openingHours": [
      "羽球場(館) : 週末開放",
      "開放時間 : 08:00~16:00",
      "租借資訊 : 付費對外場地租借 ",
      "以官方網站資訊為主"
    ],
    "description": "",
    "website": "http://www.jmes.tc.edu.tw",
    "phone": "tel:0424211136,730"
  },
  {
    "name": "五權國中至賢館活動中心",
    "region": "臺中市",
    "address": "臺中市北區英才路1號",
    "image": "https://iplay.sa.gov.tw/Upload/photogym/20140724094110_至賢館 (2).JPG",
    "hasParking": [
      "無障礙坡道：1",
      "無障礙昇降設備：1"
    ],
    "openingHours": [
      "至賢館綜合球場 : 平日開放",
      "開放時間 : 5:0~7:0",
      "租借資訊 : 付費對外場地租借 ",
      "足球場 : 每天開放",
      "開放時間 : 17:00~19:00",
      "租借資訊 : 付費對外場地租借 ",
      "以官方網站資訊為主"
    ],
    "description": "",
    "website": "http://www.wcjh.tc.edu.tw",
    "phone": "tel:0422012180"
  },
  {
    "name": "朝馬國民運動中心",
    "region": "臺中市",
    "address": "臺中市西屯區朝貴路199號",
    "image": "https://iplay.sa.gov.tw/Upload/photogym/20161212140900_TZMSL7L2XO98NEELODEZ.jpg",
    "hasParking": [
      "無障礙汽車停車格：6",
      "無障礙機踏車停車格：3",
      "無障礙坡道：1",
      "無障礙昇降設備：1",
      "無障礙廁所：4",
      "無障礙淋浴間：4",
      "入水升降座椅(游泳池)：1",
      "其他：1",
      "特製桌球檯及專用有聲球(桌球)：2"
    ],
    "openingHours": [
      "游泳池(館) : 特定時間開放",
      "籃球場 : 特定時間開放",
      "租借資訊 : 付費對外場地租借 ",
      "羽球場(館) : 特定時間開放",
      "桌球場(館) : 特定時間開放",
      "租借資訊 : 付費對外場地租借 ",
      "舞蹈教室 : 特定時間開放",
      "健身房(含重量訓練室) : 特定時間開放",
      "租借資訊 : 付費對外場地租借 ",
      "以官方網站資訊為主"
    ],
    "description": "",
    "website": "https://cmcsc.cyc.org.tw/",
    "phone": "tel:04-22536789"
  },
  {
    "name": "臺中家商活動中心",
    "region": "臺中市",
    "address": "臺中市東區和平街50號",
    "image": "https://iplay.sa.gov.tw/Upload/photogym/20140604103558__DSC0070.JPG",
    "hasParking": [
      "無"
    ],
    "openingHours": [
      "籃球場 : 每天開放",
      "開放時間 : 8:00~22:00",
      "租借資訊 : 付費對外場地租借 ",
      "羽球場(館) : 平日開放",
      "開放時間 : 08:00~22:00",
      "租借資訊 : 付費對外場地租借 ",
      "以官方網站資訊為主"
    ],
    "description": "",
    "website": "http://www.tchcvs.tc.edu.tw",
    "phone": "tel:0422223307,305"
  },
  {
    "name": "臺中客家樂活園區-樂活運動館",
    "region": "臺中市",
    "address": "臺中市東勢區圓樓街1號",
    "image": "https://iplay.sa.gov.tw/Upload/photogym/20230531173032_9H81J.jpg",
    "hasParking": [
      "無"
    ],
    "openingHours": [
      "羽球場館 : 每天開放",
      "開放時間 : 08:00~21:000",
      "租借資訊 : 免費對外場地租借 ",
      "以官方網站資訊為主"
    ],
    "description": "",
    "website": "https://www.facebook.com/DSLohas/",
    "phone": "tel:0972217676"
  },
  {
    "name": "成功國小活動中心",
    "region": "臺中市",
    "address": "臺中市東勢區慶東里東關路298號",
    "image": "https://iplay.sa.gov.tw/Upload/photogym/20141003100451_P1030452.jpg",
    "hasParking": [
      "無障礙坡道：1"
    ],
    "openingHours": [
      "羽球場(館) : 週末開放",
      "開放時間 : 6:0~22:00",
      "租借資訊 : 付費對外場地租借 ",
      "以官方網站資訊為主"
    ],
    "description": "",
    "website": "http://www.ckaps.tc.edu.tw",
    "phone": "tel:0425852040"
  },
  {
    "name": "東勢國中體育館",
    "region": "臺中市",
    "address": "臺中市東勢區東崎路5段415號",
    "image": "https://iplay.sa.gov.tw/Upload/photogym/20140721153119_5807531935_4d4af707b0_z.jpg",
    "hasParking": [
      "無障礙汽車停車格：1",
      "無障礙坡道：1",
      "無障礙廁所：2"
    ],
    "openingHours": [
      "羽球場(館) : 每天開放",
      "開放時間 : 17:00~19:00",
      "租借資訊 : 免費對外場地租借 ",
      "以官方網站資訊為主"
    ],
    "description": "",
    "website": "http://www.tsjhs.tc.edu.tw",
    "phone": "tel:04-25873843#128"
  },
  {
    "name": "臺中市潭子國民運動中心",
    "region": "臺中市",
    "address": "臺中市潭子區勝利路140號",
    "image": "https://iplay.sa.gov.tw/Upload/photogym/20210805114009_GK1VDC3QW5PWMDHKZEL2.jpg",
    "hasParking": [
      "無障礙汽車停車格：5",
      "無障礙機踏車停車格：3",
      "無障礙昇降設備：1",
      "無障礙淋浴間：5",
      "無障礙坡道：2",
      "無障礙廁所：5",
      "入水升降座椅(游泳池)：1"
    ],
    "openingHours": [
      "羽球場館 : 每天開放",
      "租借資訊 : 付費對外場地租借 ",
      "以官方網站資訊為主"
    ],
    "description": "",
    "website": "https://tzcsc.com.tw/",
    "phone": "tel:04-25325580"
  },
  {
    "name": "豐原高中活動中心",
    "region": "臺中市",
    "address": "臺中市豐原區水源路150號",
    "image": "https://iplay.sa.gov.tw/Upload/photogym/20140530154004_IMG_20140612_083808.jpg",
    "hasParking": [
      "無障礙汽車停車格：50",
      "無障礙機踏車停車格：100",
      "無障礙坡道：1"
    ],
    "openingHours": [
      "籃球場 : 週末開放",
      "開放時間 : 08:00~17:00",
      "租借資訊 : 付費對外場地租借 ",
      "羽球場(館) : 週末開放",
      "開放時間 : 08:00~17:00",
      "租借資訊 : 付費對外場地租借 ",
      "以官方網站資訊為主"
    ],
    "description": "",
    "website": "http://www.fysh.tc.edu.tw",
    "phone": "tel:0425290381,1312"
  },
  {
    "name": "霧峰健體中心",
    "region": "臺中市",
    "address": "臺中市霧峰區成功路200號",
    "image": "https://iplay.sa.gov.tw/Upload/photogym/20200825151921_WP8N84KI2LW16407AMJY.JPG",
    "hasParking": [
      "無"
    ],
    "openingHours": [
      "游泳池(館) : 每天開放",
      "開放時間 : 08:00-22:00 ",
      "租借資訊 : 付費對外場地租借 ",
      "羽球場(館) : 每天開放",
      "開放時間 : 8:00~22:00",
      "租借資訊 : 付費對外場地租借 ",
      "健身房(含重量訓練室) : 每天開放",
      "開放時間 : 8:00~22:00",
      "租借資訊 : 付費對外場地租借 ",
      "多功能舞蹈運動教室（含舞蹈教室/韻律教室/瑜珈教室等類型空間） : 每天開放",
      "開放時間 : 8:00~22:00",
      "租借資訊 : 付費對外場地租借 ",
      "以官方網站資訊為主"
    ],
    "description": "",
    "website": null,
    "phone": "tel:04-23396870"
  },
  {
    "name": "二林高中活動中心",
    "region": "彰化縣",
    "address": "彰化縣二林鎮中西里二城路6號",
    "image": "https://iplay.sa.gov.tw/Upload/photogym/20140707100439_IMG_6957.JPG",
    "hasParking": [
      "無障礙坡道：2",
      "無障礙昇降設備：1",
      "無障礙廁所：1"
    ],
    "openingHours": [
      "羽球場(館) : 每天開放",
      "開放時間 : 08:00~20:00",
      "租借資訊 : 付費對外場地租借 ",
      "游泳池(館) : 平日開放",
      "開放時間 : 08:00~17:00",
      "租借資訊 : 付費對外場地租借 ",
      "以官方網站資訊為主"
    ],
    "description": "",
    "website": "http://www.elsh.chc.edu.tw",
    "phone": "tel:04-8960121"
  },
  {
    "name": "二林工商活動中心",
    "region": "彰化縣",
    "address": "彰化縣二林鎮豐田里斗苑路四段500號",
    "image": "https://iplay.sa.gov.tw/Upload/photogym/20140619151357_DSC03179-1.jpg",
    "hasParking": [
      "無障礙汽車停車格：2",
      "無障礙機踏車停車格：5"
    ],
    "openingHours": [
      "羽球場(館) : 每天開放",
      "開放時間 : 17:00~20:00",
      "租借資訊 : 付費對外場地租借 ",
      "籃球場 : 每天開放",
      "開放時間 : 17:00~20:00",
      "租借資訊 : 付費對外場地租借 ",
      "以官方網站資訊為主"
    ],
    "description": "",
    "website": "http://www.elvs.chc.edu.tw",
    "phone": "tel:04-8962132#323"
  },
  {
    "name": "福德國小籃球場",
    "region": "彰化縣",
    "address": "彰化縣永靖鄉永南村福德巷36號",
    "image": "https://iplay.sa.gov.tw/Upload/photogym/20140708101326_IMG_8501.jpg",
    "hasParking": [
      "無"
    ],
    "openingHours": [
      "躲避球場 : 每天開放",
      "開放時間 : 16:30~19:00",
      "租借資訊 : 免費對外場地租借 ",
      "綜合球場 : 每天開放",
      "開放時間 : 16:30~19:00",
      "租借資訊 : 免費對外場地租借 ",
      "綜合球場 : 每天開放",
      "開放時間 : 16:30~19:00",
      "租借資訊 : 免費對外場地租借 ",
      "以官方網站資訊為主"
    ],
    "description": "",
    "website": "http://www.fdps.chc.edu.tw",
    "phone": "tel:048224154"
  },
  {
    "name": "德興國小風雨操場",
    "region": "彰化縣",
    "address": "彰化縣永靖鄉竹子村竹後巷47號",
    "image": "https://iplay.sa.gov.tw/Upload/photogym/20140708095520_IMG_8990.JPG",
    "hasParking": [
      "無"
    ],
    "openingHours": [
      "羽球場(館) : 每天開放",
      "開放時間 : 16:00~22:00",
      "租借資訊 : 付費對外場地租借 ",
      "以官方網站資訊為主"
    ],
    "description": "",
    "website": "http://www.sdsps.chc.edu.tw",
    "phone": "tel:048222158,13"
  },
  {
    "name": "員林市西區體育館",
    "region": "彰化縣員林市",
    "address": "彰化縣員林市雙景街50號",
    "image": "https://iplay.sa.gov.tw/Upload/photogym/20140709100743_西區體育館室內全景.JPG",
    "hasParking": [
      "無障礙汽車停車格：1",
      "無障礙坡道：1",
      "無障礙廁所：1",
      "輪椅觀眾席：10"
    ],
    "openingHours": [
      "彰化縣員林市西區體育館 : 特定時間開放",
      "租借資訊 : 付費對外場地租借",
      "以官方網站資訊為主"
    ],
    "description": "",
    "website": null,
    "phone": "tel:04-8397375"
  },
  {
    "name": "員林國小活動中心",
    "region": "彰化縣員林市",
    "address": "彰化縣員林市三和里三民東街221號",
    "image": "https://iplay.sa.gov.tw/Upload/photogym/20140708103721_C12.jpg",
    "hasParking": [
      "無"
    ],
    "openingHours": [
      "羽球場(館) : 每天開放",
      "開放時間 : 6:30~20:30",
      "租借資訊 : 付費對外場地租借 ",
      "以官方網站資訊為主"
    ],
    "description": "",
    "website": "http://www.ylps.chc.edu.tw",
    "phone": "tel:048320145"
  },
  {
    "name": "埔心國小活動中心",
    "region": "彰化縣",
    "address": "彰化縣埔心鄉義民村員鹿路二段254號",
    "image": "https://iplay.sa.gov.tw/Upload/photogym/20140707145526_DSCF1658.jpg",
    "hasParking": [
      "無障礙汽車停車格：1",
      "無障礙坡道：1"
    ],
    "openingHours": [
      "羽球場(館) : 每天開放",
      "開放時間 : 17:00~21:00",
      "租借資訊 : 付費對外場地租借 ",
      "以官方網站資訊為主"
    ],
    "description": "",
    "website": "http://www.pses.chc.edu.tw",
    "phone": "tel:048291494,104"
  },
  {
    "name": "名間國中活動中心",
    "region": "南投縣",
    "address": "南投縣名間鄉中山村彰南路237號",
    "image": "https://iplay.sa.gov.tw/Upload/photogym/20140605161004_DSC02879.JPG",
    "hasParking": [
      "無障礙汽車停車格：1",
      "無障礙廁所：1"
    ],
    "openingHours": [
      "羽球場(館) : 平日開放",
      "開放時間 : 08:00~17:00",
      "租借資訊 : 付費對外場地租借 ",
      "桌球場(館) : 週末開放",
      "開放時間 : 08:00~17:00",
      "租借資訊 : 付費對外場地租借 ",
      "以官方網站資訊為主"
    ],
    "description": "",
    "website": "http://www.mjjh.ntct.edu.tw",
    "phone": "tel:0492732046"
  },
  {
    "name": "營北國中操場",
    "region": "南投縣南投市",
    "address": "南投縣南投市營北里向上路2號",
    "image": "https://iplay.sa.gov.tw/Upload/photogym/20140610145902_DSC00376.JPG",
    "hasParking": [
      "無障礙汽車停車格：2",
      "無障礙坡道：4",
      "無障礙昇降設備：4",
      "無障礙廁所：6"
    ],
    "openingHours": [
      "籃球場 : 每天開放",
      "開放時間 : 16:30~00:00",
      "租借資訊 : 付費對外場地租借 ",
      "環形/直線慢跑道(非田徑場型) : 每天開放",
      "開放時間 : 16:30~00:00",
      "租借資訊 : 付費對外場地租借 ",
      "活動中心 : 每天開放",
      "開放時間 : 7:30~17:00",
      "租借資訊 : 付費對外場地租借 ",
      "以官方網站資訊為主"
    ],
    "description": "",
    "website": "http://163.22.185.1",
    "phone": "tel:0492392683"
  },
  {
    "name": "鹿谷國小活動中心",
    "region": "南投縣",
    "address": "南投縣鹿谷鄉鹿谷村中正路2段174號",
    "image": "https://iplay.sa.gov.tw/Upload/photogym/20140609145008_1402364270985.jpg",
    "hasParking": [
      "無"
    ],
    "openingHours": [
      "羽球場(館) : 每天開放",
      "開放時間 : 09:00~21:30",
      "租借資訊 : 付費對外場地租借 ",
      "以官方網站資訊為主"
    ],
    "description": "",
    "website": "http://www.lkps.ntct.edu.tw",
    "phone": "tel:0492752048"
  },
  {
    "name": "鳳凰國小活動中心",
    "region": "南投縣",
    "address": "南投縣鹿谷鄉鳳凰村仁義路35之1號",
    "image": "https://iplay.sa.gov.tw/Upload/photogym/20140603111148_IMG_0104.JPG",
    "hasParking": [
      "無"
    ],
    "openingHours": [
      "羽球場(館) : 平日開放",
      "開放時間 : 16:00~18:00",
      "租借資訊 : 免費對外場地租借 ",
      "桌球場(館) : 平日開放",
      "開放時間 : 16:00~18:00",
      "租借資訊 : 免費對外場地租借 ",
      "以官方網站資訊為主"
    ],
    "description": "",
    "website": "http://www.fwps.ntct.edu.tw",
    "phone": "tel:0492752214"
  },
  {
    "name": "雲林縣立體育館",
    "region": "雲林縣斗六市",
    "address": "雲林縣斗六市大學路3段600號",
    "image": "https://iplay.sa.gov.tw/Upload/photogym/20140610092159_M89NKP67YQOPJXRZ8H4N.jpg",
    "hasParking": [
      "無障礙坡道：2",
      "無障礙坡道：2",
      "無障礙坡道：2",
      "無障礙廁所：2",
      "無障礙廁所：2",
      "無障礙坡道：2",
      "無障礙淋浴間：2",
      "無障礙淋浴間：2",
      "輪椅觀眾席：16",
      "其他：40",
      "其他：40"
    ],
    "openingHours": [
      "雲林縣立體育館 : 每天開放",
      "開放時間 : 8:00~21:000",
      "租借資訊 : 付費對外場地租借 ",
      "籃球場 : 每天開放",
      "開放時間 : 00:00~00:00",
      "租借資訊 : 付費對外場地租借 ",
      "跆拳道場/館 : 每天開放",
      "開放時間 : 19:00~20:30",
      "租借資訊 : 付費對外場地租借 ",
      "健力室 : 每天開放",
      "開放時間 : 16:00~22:00",
      "租借資訊 : 付費對外場地租借 ",
      "以官方網站資訊為主"
    ],
    "description": "",
    "website": "https://stadium.yunlin.gov.tw/",
    "phone": "tel:05-5345119#220"
  },
  {
    "name": "雲林科技大學體育館",
    "region": "雲林縣斗六市",
    "address": "雲林縣斗六市大學路三段123號",
    "image": "https://iplay.sa.gov.tw/Upload/photogym/20140605111351_IMG_3740.JPG",
    "hasParking": [
      "無"
    ],
    "openingHours": [
      "籃排球場 : 平日開放",
      "開放時間 : 17:30~21:30",
      "租借資訊 : 付費對外場地租借 ",
      "排球場 : 平日開放",
      "開放時間 : 17:30~21:30",
      "租借資訊 : 付費對外場地租借 ",
      "羽球場 : 平日開放",
      "開放時間 : 17:30~21:30",
      "租借資訊 : 付費對外場地租借 ",
      "桌球教室 : 平日開放",
      "開放時間 : 17:30~21:30",
      "租借資訊 : 付費對外場地租借 ",
      "舞蹈教室 : 平日開放",
      "開放時間 : 17:30~21:30",
      "租借資訊 : 付費對外場地租借 ",
      "柔道教室 : 每天開放",
      "開放時間 : 17:30~21:30",
      "租借資訊 : 付費對外場地租借 ",
      "以官方網站資訊為主"
    ],
    "description": "",
    "website": "http://www.yuntech.edu.tw",
    "phone": "tel:055342601,2705"
  },
  {
    "name": "斗六高級中學活動中心",
    "region": "雲林縣斗六市",
    "address": "雲林縣斗六市民生路224號",
    "image": "https://iplay.sa.gov.tw/Upload/photogym/20140529105737_2014-05-29 11.22.48.jpg",
    "hasParking": [
      "無"
    ],
    "openingHours": [
      "籃球場 : 每天開放",
      "開放時間 : 08:00~19:00",
      "租借資訊 : 付費對外場地租借 ",
      "羽球場(館) : 每天開放",
      "開放時間 : 00:00~00:00",
      "租借資訊 : 付費對外場地租借 ",
      "以官方網站資訊為主"
    ],
    "description": "",
    "website": "http://www.tlsh.ylc.edu.tw",
    "phone": "tel:055322039,158"
  },
  {
    "name": "崇德國中體育館",
    "region": "雲林縣",
    "address": "雲林縣虎尾鎮廉使里文科路1530號",
    "image": "https://iplay.sa.gov.tw/Upload/photogym/20140609122804_WP_004659.jpg",
    "hasParking": [
      "無"
    ],
    "openingHours": [
      "室外運動場區 : 週末開放",
      "開放時間 : 14:00~17:30",
      "租借資訊 : 免費對外場地租借 ",
      "以官方網站資訊為主"
    ],
    "description": "",
    "website": "http://www.cdjh.ylc.edu.tw",
    "phone": "tel:056322806"
  },
  {
    "name": "蘭潭國小風雨操場",
    "region": "嘉義市",
    "address": "嘉義市東區蘭潭里小雅路419號",
    "image": "https://iplay.sa.gov.tw/Upload/photogym/20140613155743_IMG_7059.JPG",
    "hasParking": [
      "無障礙汽車停車格：1",
      "無障礙坡道：1",
      "無障礙昇降設備：1",
      "無障礙廁所：1",
      "無障礙淋浴間：1",
      "泳池專用輪椅(游泳池)：1"
    ],
    "openingHours": [
      "羽球場(館) : 每天開放",
      "開放時間 : 16:00~18:00",
      "租借資訊 : 付費對外場地租借 ",
      "環形/直線慢跑道(非田徑場型) : 每天開放",
      "開放時間 : 16:00~18:00",
      "租借資訊 : 付費對外場地租借 ",
      "半場籃球場 : 每天開放",
      "開放時間 : 16:00~18:00",
      "租借資訊 : 付費對外場地租借 ",
      "躲避球場 : 每天開放",
      "開放時間 : 16:00~18:00",
      "租借資訊 : 付費對外場地租借 ",
      "以官方網站資訊為主"
    ],
    "description": "",
    "website": "http://www.ltes.cy.edu.tw",
    "phone": "tel:052763492"
  },
  {
    "name": "民族國小活動中心",
    "region": "嘉義市",
    "address": "嘉義市東區民族路235號",
    "image": "https://iplay.sa.gov.tw/Upload/photogym/20140610142501_2014061004.jpg",
    "hasParking": [
      "無障礙汽車停車格：2",
      "無障礙坡道：1",
      "無障礙廁所：2"
    ],
    "openingHours": [
      "羽球場(館) : 週末開放",
      "開放時間 : 08:00~21:00",
      "租借資訊 : 付費對外場地租借 ",
      "以官方網站資訊為主"
    ],
    "description": "",
    "website": "http://www.mtes.cy.edu.tw",
    "phone": "tel:052222113,631"
  },
  {
    "name": "嘉義大學附小活動中心",
    "region": "嘉義市",
    "address": "嘉義市東區林森東路46號",
    "image": "https://iplay.sa.gov.tw/Upload/photogym/20140604110726_活動中心1.JPG",
    "hasParking": [
      "無障礙坡道：1",
      "無障礙廁所：1"
    ],
    "openingHours": [
      "羽球場(館) : 平日開放",
      "開放時間 : 16:00~18:00",
      "租借資訊 : 付費對外場地租借 ",
      "以官方網站資訊為主"
    ],
    "description": "",
    "website": "http://www.ncyes.ncyu.edu.tw",
    "phone": "tel:052788002,1310"
  },
  {
    "name": "嘉義高中體育館",
    "region": "嘉義市",
    "address": "嘉義市東區大雅路二段738號",
    "image": "https://iplay.sa.gov.tw/Upload/photogym/20140530113818_室籃.jpg",
    "hasParking": [
      "無"
    ],
    "openingHours": [
      "羽球場(館) : 週末開放",
      "開放時間 : 08:00~17:00",
      "租借資訊 : 免費對外場地租借 ",
      "以官方網站資訊為主"
    ],
    "description": "",
    "website": "http://www.cysh.cy.edu.tw",
    "phone": "tel:052762804"
  },
  {
    "name": "嘉義高工羽球場(館)",
    "region": "嘉義市",
    "address": "嘉義市東區彌陀路174號",
    "image": "https://iplay.sa.gov.tw/Upload/photogym/20140530105303_羽球場1.JPG",
    "hasParking": [
      "無障礙坡道：1",
      "無障礙廁所：1"
    ],
    "openingHours": [
      "羽球場(館) : 每天開放",
      "開放時間 : 19:30~21:30",
      "租借資訊 : 付費對外場地租借 ",
      "以官方網站資訊為主"
    ],
    "description": "",
    "website": "http://www.cyivs.cy.edu.tw",
    "phone": "tel:052754092"
  },
  {
    "name": "嘉義高商活動中心",
    "region": "嘉義市",
    "address": "嘉義市東區中山路7號",
    "image": "https://iplay.sa.gov.tw/Upload/photogym/20140529163622_2014-05-29 13.12.45.jpg",
    "hasParking": [
      "無障礙汽車停車格：1",
      "無障礙坡道：1"
    ],
    "openingHours": [
      "羽球場(館) : 週末開放",
      "開放時間 : 00:00~00:00",
      "租借資訊 : 付費對外場地租借 ",
      "以官方網站資訊為主"
    ],
    "description": "",
    "website": "http://www.cyvs.cy.edu.tw",
    "phone": "tel:05-2782421#330"
  },
  {
    "name": "大林國小育英堂",
    "region": "嘉義縣",
    "address": "嘉義縣大林鎮西林里中正路423號",
    "image": "https://iplay.sa.gov.tw/Upload/photogym/20140604121351_77870010.jpg",
    "hasParking": [
      "無障礙坡道：1",
      "其他：1"
    ],
    "openingHours": [
      "羽球場(館) : 平日開放",
      "開放時間 : 21:00~23:00",
      "租借資訊 : 付費對外場地租借 ",
      "以官方網站資訊為主"
    ],
    "description": "",
    "website": "http://www.tles.cyc.edu.tw",
    "phone": "tel:052652061"
  },
  {
    "name": "吳鳳科技大學旭光中心(體育館)",
    "region": "嘉義縣",
    "address": "嘉義縣民雄鄉建國路二段117號",
    "image": "https://iplay.sa.gov.tw/Upload/photogym/20140617090652_旭光中心(體育館 ).jpg",
    "hasParking": [
      "無障礙坡道：1",
      "無障礙昇降設備：1",
      "無障礙廁所：3"
    ],
    "openingHours": [
      "羽球場 : 平日開放",
      "開放時間 : 8:30~18:00",
      "租借資訊 : 付費對外場地租借 "
    ],
    "description": "",
    "website": "http://www.wfu.edu.tw/wufeng/",
    "phone": "tel:052267125,21642"
  },
  {
    "name": "竹崎國小活動中心",
    "region": "嘉義縣",
    "address": "嘉義縣竹崎鄉竹崎村文化路28號",
    "image": "https://iplay.sa.gov.tw/Upload/photogym/20140603153035_I7RXDMKZ2E5DGQ1U5JF3.jpg",
    "hasParking": [
      "無障礙坡道：1"
    ],
    "openingHours": [
      "羽球場(館) : 週末開放",
      "開放時間 : 08:00~17:00",
      "租借資訊 : 付費對外場地租借 ",
      "以官方網站資訊為主"
    ],
    "description": "",
    "website": "http://www.jcps.cyc.edu.tw",
    "phone": "tel:052611018"
  },
  {
    "name": "東石國小活動中心",
    "region": "嘉義縣",
    "address": "嘉義縣東石鄉猿樹村117號",
    "image": "https://iplay.sa.gov.tw/Upload/photogym/20140613143832_IMG_2787x.jpg",
    "hasParking": [
      "無障礙汽車停車格：1",
      "無障礙坡道：2",
      "無障礙廁所：1"
    ],
    "openingHours": [
      "羽球場（館） : 平日開放",
      "開放時間 : 17:00~18:00",
      "租借資訊 : 付費對外場地租借 ",
      "以官方網站資訊為主"
    ],
    "description": "",
    "website": "http://www.tsps.cyc.edu.tw",
    "phone": "tel:053732295"
  },
  {
    "name": "梅山國小活動中心",
    "region": "嘉義縣",
    "address": "嘉義縣梅山鄉梅東村中山路28號之1",
    "image": "https://iplay.sa.gov.tw/Upload/photogym/20140616164724_DSC00276-1024.jpg",
    "hasParking": [
      "無障礙汽車停車格：1",
      "無障礙坡道：1",
      "無障礙廁所：1"
    ],
    "openingHours": [
      "羽球場(館) : 平日開放",
      "開放時間 : 17:30~19:30",
      "租借資訊 : 付費對外場地租借 ",
      "以官方網站資訊為主"
    ],
    "description": "",
    "website": "http://www.msps.cyc.edu.tw",
    "phone": "tel:052621004"
  },
  {
    "name": "山上活動中心",
    "region": "臺南市",
    "address": "臺南市山上區南洲里42號",
    "image": "https://iplay.sa.gov.tw/Upload/photogym/20140711151218_IMG_2556.JPG",
    "hasParking": [
      "無障礙坡道：1"
    ],
    "openingHours": [
      "羽球場(館) : 週末開放",
      "開放時間 : 00:00~00:00",
      "租借資訊 : 付費對外場地租借 ",
      "以官方網站資訊為主"
    ],
    "description": "",
    "website": "http://www.sases.tn.edu.tw/",
    "phone": "tel:065781203,83"
  },
  {
    "name": "永華國民運動中心",
    "region": "臺南市",
    "address": "臺南市中西區中華西路2段30號",
    "image": "https://iplay.sa.gov.tw/Upload/photogym/20181012174523_20KMHL90C6ICAJYISXH1.jpg",
    "hasParking": [
      "無障礙汽車停車格：2",
      "無障礙機踏車停車格：3",
      "無障礙昇降設備：1",
      "無障礙廁所：2",
      "無障礙淋浴間：1",
      "入水坡道(游泳池)：1",
      "訊號顯示器(籃球)：1",
      "可調整式球框(籃球)：3",
      "可調整式球網(羽球)：4"
    ],
    "openingHours": [
      "綜合球場 : 每天開放",
      "開放時間 : 上午6點至晚上10點",
      "租借資訊 : 付費對外場地租借 ",
      "游泳池(館) : 每天開放",
      "開放時間 : 上午6點至晚上10點",
      "租借資訊 : 付費對外場地租借 ",
      "籃球場館 : 每天開放",
      "開放時間 : 06：00~22：00",
      "租借資訊 : 付費對外場地租借 ",
      "羽球場館 : 每天開放",
      "開放時間 : 上午6點至晚上10點",
      "租借資訊 : 付費對外場地租借 ",
      "足球場館 : 每天開放",
      "開放時間 : 上午6點至晚上10點",
      "租借資訊 : 付費對外場地租借 ",
      "籃球場館 : 每天開放",
      "開放時間 : 06：00~22：00",
      "租借資訊 : 付費對外場地租借 ",
      "羽球場館 : 每天開放",
      "開放時間 : 06：00~22：00",
      "租借資訊 : 付費對外場地租借 ",
      "桌球場館 : 每天開放",
      "開放時間 : 上午6點至晚上10點",
      "租借資訊 : 付費對外場地租借 ",
      "多功能健身房/體適能中心（此空間中具有兩種以上之阻力運動器材設備） : 每天開放",
      "開放時間 : 上午6點至晚上10點",
      "租借資訊 : 付費對外場地租借 ",
      "撞球場館 : 每天開放",
      "開放時間 : 上午6點至晚上10點",
      "租借資訊 : 付費對外場地租借 ",
      "直排輪場 : 每天開放",
      "開放時間 : 上午8點至晚上10點",
      "租借資訊 : 付費對外場地租借 ",
      "韻律體操室 : 每天開放",
      "開放時間 : 上午6點至晚上10點",
      "租借資訊 : 付費對外場地租借 ",
      "飛輪室 : 每天開放",
      "開放時間 : 上午6點至晚上10點",
      "租借資訊 : 付費對外場地租借 ",
      "以官方網站資訊為主"
    ],
    "description": "",
    "website": "https://www.yhsports.com.tw/",
    "phone": "tel:06-2986111"
  },
  {
    "name": "德光高中體育館",
    "region": "臺南市",
    "address": "臺南市東區德光街106號",
    "image": "https://iplay.sa.gov.tw/Upload/photogym/20140711121431_PIC_5064.JPG",
    "hasParking": [
      "無"
    ],
    "openingHours": [
      "羽球場(館) : 每天開放",
      "開放時間 : 6:30~22:00",
      "租借資訊 : 付費對外場地租借 "
    ],
    "description": "",
    "website": "http://www.tkgsh.tn.edu.tw",
    "phone": "tel:062894560"
  },
  {
    "name": "新營體育園區",
    "region": "臺南市",
    "address": "臺南市新營區長榮路二段78號",
    "image": "https://iplay.sa.gov.tw/Upload/photogym/20150720141021_新營籃球場1.JPG",
    "hasParking": [
      "無障礙坡道：1",
      "無障礙昇降設備：2",
      "無障礙廁所：2"
    ],
    "openingHours": [
      "羽球場館 : 每天開放",
      "開放時間 : 05:00~22:00",
      "租借資訊 : 付費對外場地租借 "
    ],
    "description": "",
    "website": "http://www.sports.tn.edu.tw/html/main",
    "phone": "tel:06-6562104#22"
  },
  {
    "name": "三民國中羽球場(館",
    "region": "高雄市",
    "address": "高雄市三民區十全一路200號",
    "image": "https://iplay.sa.gov.tw/Upload/photogym/20170714114623_I20PH9TG4S7NWZ0XLPAF.jpg",
    "hasParking": [
      "無障礙汽車停車格：3",
      "無障礙坡道：1",
      "無障礙昇降設備：1",
      "無障礙廁所：1",
      "無障礙淋浴間：1"
    ],
    "openingHours": [
      "羽球場(館) : 平日開放",
      "開放時間 : 17:00~20:00",
      "租借資訊 : 付費對外場地租借 ",
      "以官方網站資訊為主"
    ],
    "description": "",
    "website": "http://www.smjh.kh.edu.tw",
    "phone": "tel:073227751,332"
  },
  {
    "name": "國立岡山農工學生活動中心",
    "region": "高雄市",
    "address": "高雄市岡山區壽天里岡山路533號",
    "image": "https://iplay.sa.gov.tw/Upload/photogym/20160823164551_LN1VNC0W1EFKZSKOO69B.JPG",
    "hasParking": [
      "無障礙汽車停車格：2",
      "無障礙坡道：1",
      "無障礙廁所：1"
    ],
    "openingHours": [
      "羽球場(館) : 每天開放",
      "開放時間 : 17:00~20:00",
      "租借資訊 : 付費對外場地租借 ",
      "羽球場(館) : 每天開放",
      "開放時間 : 17:00~20:00",
      "租借資訊 : 付費對外場地租借 ",
      "以官方網站資訊為主"
    ],
    "description": "",
    "website": "http://www.ksvs.khc.edu.tw",
    "phone": "tel:076217129,249"
  },
  {
    "name": "岡山農工田徑場",
    "region": "高雄市",
    "address": "高雄市岡山區壽天里岡山路533號",
    "image": "https://iplay.sa.gov.tw/Upload/photogym/20140529130058_IMAG1033_1.jpg",
    "hasParking": [
      "無"
    ],
    "openingHours": [
      "田徑場 : 每天開放",
      "開放時間 : 17:00~22:00",
      "租借資訊 : 付費對外場地租借 ",
      "足球場 : 每天開放",
      "開放時間 : 17:00~22:00",
      "租借資訊 : 付費對外場地租借 ",
      "籃球場 : 每天開放",
      "開放時間 : 17:00~22:00",
      "租借資訊 : 付費對外場地租借 ",
      "網球場(館) : 每天開放",
      "開放時間 : 17:00~22:00",
      "租借資訊 : 付費對外場地租借 ",
      "羽球場(館) : 每天開放",
      "開放時間 : 17:00~22:00",
      "租借資訊 : 付費對外場地租借 ",
      "桌球場(館) : 每天開放",
      "開放時間 : 17:00~22:00",
      "租借資訊 : 付費對外場地租借 ",
      "舞蹈教室 : 每天開放",
      "開放時間 : 17:00~22:00",
      "租借資訊 : 付費對外場地租借 ",
      "健身房(含重量訓練室) : 每天開放",
      "開放時間 : 17:00~22:00",
      "租借資訊 : 付費對外場地租借 ",
      "半場籃球場 : 每天開放",
      "開放時間 : 17:00~22:00",
      "租借資訊 : 付費對外場地租借 ",
      "樂活運動站 : 每天開放",
      "開放時間 : 17:00~22:00",
      "租借資訊 : 付費對外場地租借 ",
      "足球場 : 每天開放",
      "開放時間 : 17:00~22:00",
      "租借資訊 : 付費對外場地租借 ",
      "足球場 : 每天開放",
      "開放時間 : 17:00~22:00",
      "租借資訊 : 付費對外場地租借 ",
      "以官方網站資訊為主"
    ],
    "description": "",
    "website": "http://www.ksvs.khc.edu.tw",
    "phone": "tel:076217129,215"
  },
  {
    "name": "林園區幸福公園演藝展覽桌球羽球館",
    "region": "高雄市",
    "address": "高雄市林園區沿海路二段250號",
    "image": "https://iplay.sa.gov.tw/Upload/photogym/20140715173310_rsz_dsc06632.jpg",
    "hasParking": [
      "無障礙坡道：2"
    ],
    "openingHours": [
      "桌球場(館) : 特定時間開放",
      "羽球場(館) : 特定時間開放",
      "租借資訊 : 付費對外場地租借 ",
      "以官方網站資訊為主"
    ],
    "description": "",
    "website": null,
    "phone": "tel:07-6412511#130"
  },
  {
    "name": "中芸國中體育館",
    "region": "高雄市",
    "address": "高雄市林園區中芸里中芸路3之100號",
    "image": "https://iplay.sa.gov.tw/Upload/photogym/20140701131403_20140425_07.jpg",
    "hasParking": [
      "無障礙廁所：1",
      "其他：1"
    ],
    "openingHours": [
      "羽球場(館) : 每天開放",
      "開放時間 : 16:00~17:00",
      "租借資訊 : 付費對外場地租借 ",
      "以官方網站資訊為主"
    ],
    "description": "",
    "website": "http://www.zym.ks.edu.tw",
    "phone": "tel:076425223,33"
  },
  {
    "name": "高雄特殊教育學校學生活動中心",
    "region": "高雄市",
    "address": "高雄市苓雅區憲政路233巷2號",
    "image": "https://iplay.sa.gov.tw/Upload/photogym/20140703115145_IMG_0580.JPG",
    "hasParking": [
      "無障礙坡道：2",
      "無障礙昇降設備：1",
      "無障礙廁所：2",
      "泳池專用輪椅(游泳池)：1",
      "其他：1"
    ],
    "openingHours": [
      "羽球場(館) : 平日開放",
      "開放時間 : 16:00~18:00",
      "租借資訊 : 付費對外場地租借 ",
      "以官方網站資訊為主"
    ],
    "description": "",
    "website": "http://www.kmsmr.kh.edu.tw/nss/p/index",
    "phone": "tel:072235940,125"
  },
  {
    "name": "茂林里多功能活動中心",
    "region": "高雄市",
    "address": "高雄市茂林區茂林里",
    "image": "https://iplay.sa.gov.tw/Upload/photogym/20140718105016_茂林1.JPG",
    "hasParking": [
      "無障礙坡道：1"
    ],
    "openingHours": [
      "籃球場 : 每天開放",
      "租借資訊 : 免費對外場地租借 ",
      "羽球場館 : 每天開放",
      "租借資訊 : 免費對外場地租借 ",
      "排球場館 : 每天開放",
      "租借資訊 : 免費對外場地租借 ",
      "以官方網站資訊為主"
    ],
    "description": "",
    "website": "http://www.maolin.gov.tw/",
    "phone": "tel:07-6801045#236"
  },
  {
    "name": "茄萣國小活動中心",
    "region": "高雄市",
    "address": "高雄市茄萣區茄萣路二段307號",
    "image": "https://iplay.sa.gov.tw/Upload/photogym/20140616161424_NBYX1ZWPBYRA5R0IW8Y8.JPG",
    "hasParking": [
      "無障礙汽車停車格：1",
      "無障礙坡道：1",
      "無障礙廁所：1"
    ],
    "openingHours": [
      "羽球場(館) : 平日開放",
      "開放時間 : 17:00~20:00",
      "租借資訊 : 付費對外場地租借 ",
      "以官方網站資訊為主"
    ],
    "description": "",
    "website": "http://www.qdp.ks.edu.tw",
    "phone": "tel:076900057"
  },
  {
    "name": "羽球場館",
    "region": "高雄市",
    "address": "高雄市楠梓區楠梓路336號",
    "image": "https://iplay.sa.gov.tw/Upload/photogym/20140617143333_活動中心.jpg",
    "hasParking": [
      "無障礙汽車停車格：2",
      "無障礙坡道：1",
      "無障礙昇降設備：2",
      "無障礙廁所：1"
    ],
    "openingHours": [
      "羽球場(館) : 每天開放",
      "開放時間 : 17:30~20:00",
      "租借資訊 : 付費對外場地租借 ",
      "以官方網站資訊為主"
    ],
    "description": "",
    "website": "http://www.ntjh.kh.edu.tw",
    "phone": "tel:07-3517191"
  },
  {
    "name": "路竹高中體育館",
    "region": "高雄市",
    "address": "高雄市路竹區中華路292號",
    "image": "https://iplay.sa.gov.tw/Upload/photogym/20140603114525_0610.9.jpg",
    "hasParking": [
      "無障礙汽車停車格：2",
      "無障礙坡道：1"
    ],
    "openingHours": [
      "羽球場(館) : 週末開放",
      "開放時間 : 08:00~13:0",
      "租借資訊 : 付費對外場地租借 "
    ],
    "description": "",
    "website": "http://www.lchs.ks.edu.tw",
    "phone": "tel:07-6963008#133"
  },
  {
    "name": "鼓山國小羽球場(館)",
    "region": "高雄市",
    "address": "高雄市鼓山區臨海二路50號",
    "image": "https://iplay.sa.gov.tw/Upload/photogym/20140611170720_調整大小100_0821.JPG",
    "hasParking": [
      "無"
    ],
    "openingHours": [
      "羽球場(館) : 週末開放",
      "開放時間 : 09:00~21:00",
      "租借資訊 : 付費對外場地租借 ",
      "以官方網站資訊為主"
    ],
    "description": "",
    "website": "http://www.kusps.kh.edu.tw",
    "phone": "tel:075217795,313"
  },
  {
    "name": "橋頭國中活動中心",
    "region": "高雄市",
    "address": "高雄市橋頭區新興路70號",
    "image": "https://iplay.sa.gov.tw/Upload/photogym/20140612163523_DSC00365.JPG",
    "hasParking": [
      "無"
    ],
    "openingHours": [
      "羽球場(館) : 每天開放",
      "開放時間 : 00:00~00:00",
      "租借資訊 : 付費對外場地租借 ",
      "以官方網站資訊為主"
    ],
    "description": "",
    "website": "http://www.qtm.ks.edu.tw",
    "phone": "tel:076113559,32"
  },
  {
    "name": "五林國小活動中心",
    "region": "高雄市",
    "address": "高雄市橋頭區東林里五林路160號",
    "image": "https://iplay.sa.gov.tw/Upload/photogym/20140612153500_IMG_5073.JPG",
    "hasParking": [
      "無障礙廁所：1",
      "無障礙淋浴間：1"
    ],
    "openingHours": [
      "羽球場(館) : 平日開放",
      "開放時間 : 08:00~16:00",
      "租借資訊 : 付費對外場地租借 ",
      "以官方網站資訊為主"
    ],
    "description": "",
    "website": "http://www.wln.ks.edu.tw",
    "phone": "tel:076113549"
  },
  {
    "name": "屏東科技大學孟祥體育館",
    "region": "屏東縣",
    "address": "屏東縣內埔鄉學府路1號",
    "image": "https://iplay.sa.gov.tw/Upload/photogym/20140610144306_G8-1.jpg",
    "hasParking": [
      "無"
    ],
    "openingHours": [
      "羽球場(館) : 平日開放",
      "租借資訊 : 付費對外場地租借 ",
      "開放時間 : 17:30~20:30"
    ],
    "description": "",
    "website": "http://www.npust.edu.tw",
    "phone": "tel:087703202,6481"
  },
  {
    "name": "林邊鄉複合式運動場",
    "region": "屏東縣",
    "address": "屏東縣林邊鄉光林村和平路53號",
    "image": "https://iplay.sa.gov.tw/Upload/photogym/20210526114336_MHVD0RVEG7JECDDHXI5W.jpg",
    "hasParking": [
      "無障礙汽車停車格：1"
    ],
    "openingHours": [
      "林邊鄉立羽球場館 : 每天開放",
      "租借資訊 : 付費對外場地租借 ",
      "以官方網站資訊為主"
    ],
    "description": "",
    "website": null,
    "phone": "tel:0989585608"
  },
  {
    "name": "繁華國小活動中心",
    "region": "屏東縣",
    "address": "屏東縣長治鄉繁華村水源路96號",
    "image": "https://iplay.sa.gov.tw/Upload/photogym/20140710100102_全景.jpg",
    "hasParking": [
      "無障礙坡道：1",
      "無障礙廁所：1"
    ],
    "openingHours": [
      "羽球場(館) : 平日開放",
      "開放時間 : 7:30~17:30",
      "租借資訊 : 付費對外場地租借 ",
      "以官方網站資訊為主"
    ],
    "description": "",
    "website": "http://www.fhps.ptc.edu.tw",
    "phone": "tel:087621254"
  },
  {
    "name": "屏東女中多功能室內球類(羽排藍球)館(含學生集會中心)",
    "region": "屏東縣屏東市",
    "address": "屏東縣屏東市仁愛路94號",
    "image": "https://iplay.sa.gov.tw/Upload/photogym/20200423131313_4HOP2IRL55FMBC1ZOSTM.jpg",
    "hasParking": [
      "無障礙汽車停車格：1",
      "無障礙坡道：1",
      "無障礙廁所：1",
      "無障礙淋浴間：5",
      "泳池專用輪椅(游泳池)：1",
      "其他：1"
    ],
    "openingHours": [
      "羽球場(館) : 週末開放",
      "開放時間 : 100:00~17:00",
      "租借資訊 : 付費對外場地租借 ",
      "籃排(網)多功能球場 : 每天開放",
      "開放時間 : 17:00~18:00",
      "租借資訊 : 付費對外場地租借 ",
      "以官方網站資訊為主"
    ],
    "description": "",
    "website": "http://www.ptgsh.ptc.edu.tw",
    "phone": "tel:087362204,350"
  },
  {
    "name": "活動中心(屏商校區)",
    "region": "屏東縣屏東市",
    "address": "屏東縣屏東市民生東路51號",
    "image": "https://iplay.sa.gov.tw/Upload/photogym/20190225145040_9FGTKT1NGNM1I7C17AOC.jpg",
    "hasParking": [
      "無障礙坡道：1",
      "無障礙昇降設備：1",
      "無障礙廁所：1"
    ],
    "openingHours": [
      "羽球場(館) : 平日開放",
      "開放時間 : 7:30~100:00",
      "租借資訊 : 付費對外場地租借 "
    ],
    "description": "",
    "website": null,
    "phone": "tel:087663800,10523"
  },
  {
    "name": "屏東市瑞光公園羽球場",
    "region": "屏東縣",
    "address": "屏東縣屏東市建豐路與瑞光路交叉口",
    "image": "https://iplay.sa.gov.tw/Upload/photogym/20140817212859_瑞光(羽球).jpg",
    "hasParking": [
      "無"
    ],
    "openingHours": [
      "羽球場(館) : 每天開放",
      "租借資訊 : 免費對外場地租借 ",
      "以官方網站資訊為主"
    ],
    "description": "",
    "website": "http://www.ptcg.gov.tw/",
    "phone": "tel:08-7516932"
  },
  {
    "name": "屏東市上興公園羽球場",
    "region": "屏東縣",
    "address": "屏東縣屏東市興豐街152巷",
    "image": "https://iplay.sa.gov.tw/Upload/photogym/20140817211801_上興(羽球).jpg",
    "hasParking": [
      "無"
    ],
    "openingHours": [
      "羽球場(館) : 每天開放",
      "租借資訊 : 免費對外場地租借 ",
      "以官方網站資訊為主"
    ],
    "description": "",
    "website": "http://www.ptcg.gov.tw/",
    "phone": "tel:08-7516932"
  },
  {
    "name": "羽球場館",
    "region": "屏東縣屏東市",
    "address": "屏東縣屏東市民學路2號",
    "image": "https://iplay.sa.gov.tw/Upload/photogym/20140618094121_h6.jpg",
    "hasParking": [
      "無障礙坡道：1"
    ],
    "openingHours": [
      "活動中心 : 週末開放",
      "開放時間 : 08:00~16:00",
      "租借資訊 : 免費對外場地租借 ",
      "以官方網站資訊為主"
    ],
    "description": "",
    "website": "http://www.ccjh.ptc.edu.tw",
    "phone": "tel:087226387,41"
  },
  {
    "name": "忠孝國小活動中心",
    "region": "屏東縣屏東市",
    "address": "屏東縣屏東市建豐路204號",
    "image": "https://iplay.sa.gov.tw/Upload/photogym/20140616155951_IMG_1700.JPG",
    "hasParking": [
      "無障礙坡道：1"
    ],
    "openingHours": [
      "羽球場(館) : 每天開放",
      "開放時間 : 16:30~20:00",
      "租借資訊 : 付費對外場地租借 ",
      "以官方網站資訊為主"
    ],
    "description": "",
    "website": "http://www.chps.ptc.edu.tw",
    "phone": "tel:087371939,14"
  },
  {
    "name": "僑勇國小活動中心",
    "region": "屏東縣",
    "address": "屏東縣恆春鎮城北里西門路146號",
    "image": "https://iplay.sa.gov.tw/Upload/photogym/20140609132931_活動中心(1).jpg",
    "hasParking": [
      "無障礙坡道：1"
    ],
    "openingHours": [
      "羽球場(館) : 每天開放",
      "開放時間 : 17:30~20:00",
      "租借資訊 : 付費對外場地租借 ",
      "桌球場(館) : 週末開放",
      "開放時間 : 17:30~20:00",
      "租借資訊 : 付費對外場地租借 ",
      "以官方網站資訊為主"
    ],
    "description": "",
    "website": "http://www.chyps.ptc.edu.tw/bin/home.php",
    "phone": "tel:088892141,14"
  },
  {
    "name": "滿州國中學生活動中心",
    "region": "屏東縣",
    "address": "屏東縣滿州鄉文化路32號",
    "image": "https://iplay.sa.gov.tw/Upload/photogym/20140812114819_DSC02422.JPG",
    "hasParking": [
      "無"
    ],
    "openingHours": [
      "羽球場(館) : 平日開放",
      "開放時間 : 17:00~21:00",
      "租借資訊 : 付費對外場地租借 ",
      "以官方網站資訊為主"
    ],
    "description": "",
    "website": "http://www.mjjhs.ptc.edu.tw",
    "phone": "tel:088801106"
  },
  {
    "name": "潮州鎮運動公園",
    "region": "屏東縣",
    "address": "屏東縣潮州鎮三城路301號",
    "image": "https://iplay.sa.gov.tw/Upload/photogym/20140915153036_9QAXIKIW4DLACWRP0B2V.JPG",
    "hasParking": [
      "無障礙汽車停車格：1",
      "無障礙坡道：2",
      "無障礙廁所：2",
      "可調整式球框(籃球)：1",
      "可調整式球網(羽球)：6"
    ],
    "openingHours": [
      "綜合球場(館) : 特定時間開放",
      "壘球場 : 每天開放",
      "租借資訊 : 免費對外場地租借 ",
      "開放時間 : ",
      "籃球場館 : 每天開放",
      "租借資訊 : 免費對外場地租借 ",
      "開放時間 : 24小時",
      "滑輪場/溜冰場 : 每天開放",
      "租借資訊 : 免費對外場地租借 ",
      "開放時間 : ",
      "曲棍球場 : 每天開放",
      "租借資訊 : 免費對外場地租借 ",
      "開放時間 : ",
      "以官方網站資訊為主"
    ],
    "description": "",
    "website": "http://www.chaujou.gov.tw/",
    "phone": "tel:08-7895333"
  },
  {
    "name": "潮州高中體適能館",
    "region": "屏東縣",
    "address": "屏東縣潮洲鎮中山路11號",
    "image": "https://iplay.sa.gov.tw/Upload/photogym/20140609105256_123.jpg",
    "hasParking": [
      "無障礙坡道：2",
      "無障礙昇降設備：1",
      "無障礙廁所：1"
    ],
    "openingHours": [
      "撞球場 : 每天開放",
      "開放時間 : 08:00~22:00",
      "租借資訊 : 付費對外場地租借 ",
      "桌球場(館) : 每天開放",
      "開放時間 : 08:00~22:00",
      "租借資訊 : 付費對外場地租借 ",
      "健身房(含重量訓練室) : 每天開放",
      "開放時間 : 08:00~22:00",
      "租借資訊 : 付費對外場地租借 ",
      "羽球場(館) : 每天開放",
      "開放時間 : 08:00~22:00",
      "租借資訊 : 付費對外場地租借 ",
      "以官方網站資訊為主"
    ],
    "description": "",
    "website": "http://www.ccsh.ptc.edu.tw",
    "phone": "tel:087882017"
  },
  {
    "name": "成功商水活動中心",
    "region": "臺東縣",
    "address": "臺東縣成功鎮太平路52號",
    "image": "https://iplay.sa.gov.tw/Upload/photogym/20140529171024_IMAG022722222.JPG",
    "hasParking": [
      "無障礙坡道：1",
      "無障礙廁所：1",
      "無障礙淋浴間：1"
    ],
    "openingHours": [
      "籃球場 : 每天開放",
      "開放時間 : 08:00~18:00",
      "租借資訊 : 付費對外場地租借 ",
      "羽球場(館) : 每天開放",
      "開放時間 : 08:00~18:00",
      "租借資訊 : 付費對外場地租借 ",
      "以官方網站資訊為主"
    ],
    "description": "",
    "website": "http://www.ckvs.ttct.edu.tw",
    "phone": "tel:089-850011#320"
  },
  {
    "name": "池上國中體育館(羽球、籃球、躲避球及排球)",
    "region": "臺東縣",
    "address": "臺東縣池上鄉新興村力學路88號",
    "image": "https://iplay.sa.gov.tw/Upload/photogym/20140605153043_IMG_5804.JPG",
    "hasParking": [
      "無障礙汽車停車格：1",
      "無障礙坡道：1",
      "無障礙淋浴間：1"
    ],
    "openingHours": [
      "池上國中體育館 : 週末開放",
      "開放時間 : 08:00~16:00",
      "租借資訊 : 付費對外場地租借 ",
      "以官方網站資訊為主"
    ],
    "description": "",
    "website": "http://www.csjh.ttct.edu.tw/bin/home.php",
    "phone": "tel:089862040"
  },
  {
    "name": "臺東專科學校(志清堂)",
    "region": "臺東縣臺東市",
    "address": "臺東縣臺東市正氣北路889號",
    "image": "https://iplay.sa.gov.tw/Upload/photogym/20140530142415_DSC00658.JPG",
    "hasParking": [
      "無障礙坡道：1"
    ],
    "openingHours": [
      "羽球場(館) : 每天開放",
      "開放時間 : 19:00~21:00",
      "租借資訊 : 付費對外場地租借 ",
      "以官方網站資訊為主"
    ],
    "description": "",
    "website": "http://www.ntc.edu.tw",
    "phone": "tel:089226389,2250"
  },
  {
    "name": "宜昌國中活動中心",
    "region": "花蓮縣",
    "address": "花蓮縣吉安鄉宜昌1街41號",
    "image": "https://iplay.sa.gov.tw/Upload/photogym/20140616115030_DSC01300.JPG",
    "hasParking": [
      "無障礙昇降設備：1",
      "無障礙坡道：1"
    ],
    "openingHours": [
      "羽球場(館) : 平日開放",
      "開放時間 : 17:00~21:00",
      "租借資訊 : 付費對外場地租借 ",
      "以官方網站資訊為主"
    ],
    "description": "",
    "website": "http://www.ycjh.hlc.edu.tw",
    "phone": "tel:038520803,201"
  },
  {
    "name": "宜昌國小活動中心",
    "region": "花蓮縣",
    "address": "花蓮縣吉安鄉宜昌一街45號",
    "image": "https://iplay.sa.gov.tw/Upload/photogym/20140609150739_IMAG0607.jpg",
    "hasParking": [
      "無障礙汽車停車格：1",
      "無障礙坡道：1",
      "無障礙廁所：1"
    ],
    "openingHours": [
      "羽球場(館) : 每天開放",
      "開放時間 : 17:00~21:30",
      "租借資訊 : 付費對外場地租借 ",
      "以官方網站資訊為主"
    ],
    "description": "",
    "website": "http://www.ycps.hlc.edu.tw",
    "phone": "tel:038520209"
  },
  {
    "name": "羽球場館",
    "region": "花蓮縣花蓮市",
    "address": "花蓮縣花蓮市菁華街２號",
    "image": "https://iplay.sa.gov.tw/Upload/photogym/20160504112001_IMG_5041.JPG",
    "hasParking": [
      "無障礙汽車停車格：1",
      "無障礙坡道：2",
      "無障礙廁所：1"
    ],
    "openingHours": [
      "羽球場(館) : 週末開放",
      "開放時間 : 08:00~19:00",
      "租借資訊 : 付費對外場地租借 ",
      "以官方網站資訊為主"
    ],
    "description": "",
    "website": "http://www.hlgs.hlc.edu.tw/2010/",
    "phone": "tel:03-8321202#133"
  },
  {
    "name": "富里國中活動中心",
    "region": "花蓮縣",
    "address": "花蓮縣富里鄉永安路173號",
    "image": "https://iplay.sa.gov.tw/Upload/photogym/20140704094202_體育館.jpg",
    "hasParking": [
      "無"
    ],
    "openingHours": [
      "羽球場(館) : 每天開放",
      "開放時間 : 18:00~20:00",
      "租借資訊 : 付費對外場地租借 ",
      "以官方網站資訊為主"
    ],
    "description": "",
    "website": "http://www.fljh.hlc.edu.tw",
    "phone": "tel:038830006"
  },
  {
    "name": "宜蘭國民運動中心",
    "region": "宜蘭縣宜蘭市",
    "address": "宜蘭縣宜蘭市公園路66號",
    "image": "https://iplay.sa.gov.tw/Upload/photogym/20190726083823_Y6ZHO2C3XMHLO3OHR7ZC.JPG",
    "hasParking": [
      "無障礙昇降設備：1",
      "無障礙廁所：2",
      "無障礙淋浴間：1",
      "入水升降座椅(游泳池)：1"
    ],
    "openingHours": [
      "綜合球場（籃羽球） : 每天開放",
      "開放時間 : 6:00~22:00",
      "租借資訊 : 付費對外場地租借 "
    ],
    "description": "",
    "website": "https://yilansports.com.tw",
    "phone": "tel:03-9254566"
  },
  {
    "name": "澎湖縣立羽球館",
    "region": "澎湖縣",
    "address": "澎湖縣馬公市民生路38-1號",
    "image": "https://iplay.sa.gov.tw/Upload/photogym/20140915153711_羽球館2.jpg",
    "hasParking": [
      "無障礙坡道：1"
    ],
    "openingHours": [
      "縣立羽球館 : 特定時間開放",
      "桌球室 : 每天開放",
      "租借資訊 : 免費對外場地租借 ",
      "開放時間 : 14:00-21:00",
      "以官方網站資訊為主"
    ],
    "description": "",
    "website": "https://www.phs.gov.tw/",
    "phone": "tel:06-9272803"
  },
  {
    "name": "金門縣立體育場",
    "region": "金門縣",
    "address": "金門縣金城鎮民族路261號",
    "image": "https://iplay.sa.gov.tw/Upload/photogym/20140617092342_M4EJ2.PNG",
    "hasParking": [
      "無障礙汽車停車格：3",
      "無障礙機踏車停車格：2",
      "無障礙坡道：2",
      "無障礙昇降設備：1",
      "無障礙廁所：3",
      "入水升降座椅(游泳池)：1"
    ],
    "openingHours": [
      "羽球場 : 特定時間開放",
      "租借資訊 : 付費對外場地租借 "
    ],
    "description": "",
    "website": "https://sport.kinmen.gov.tw/Default.aspx",
    "phone": "tel:082-372361"
  },
  {
    "name": "中正國小活動中心",
    "region": "金門縣",
    "address": "金門縣金城鎮珠浦北路38號",
    "image": "https://iplay.sa.gov.tw/Upload/photogym/20140606142946_IMG_3316.JPG",
    "hasParking": [
      "無"
    ],
    "openingHours": [
      "籃球場 : 平日開放",
      "開放時間 : 08:00~17:00",
      "租借資訊 : 免費對外場地租借 ",
      "羽球場(館) : 平日開放",
      "開放時間 : 08:00~17:00",
      "租借資訊 : 免費對外場地租借 ",
      "以官方網站資訊為主"
    ],
    "description": "",
    "website": "http://www.jjes.km.edu.tw",
    "phone": "tel:082-325645#24"
  }
]